{
"type": "FeatureCollection",
"name": "AWDN HP_3152020",
"crs": { "type": "name", "properties": { "name": "urn:ogc:def:crs:EPSG::4269" } },
"features": [
{ "type": "Feature", "properties": { "Lat_DD": 42.57, "Lon_DD": -99.83, "ID": "A250059", "Name": "AINSWORTH 2NE", "State": "Nebraska", "elevation": 765, "status": "ACTIVE" }, "geometry": { "type": "Point", "coordinates": [ -99.83, 42.57 ] } },
{ "type": "Feature", "properties": { "Lat_DD": 41.45, "Lon_DD": -101.72, "ID": "A250365", "Name": "ARTHUR 8S", "State": "Nebraska", "elevation": 1094, "status": "ACTIVE" }, "geometry": { "type": "Point", "coordinates": [ -101.72, 41.45 ] } },
{ "type": "Feature", "properties": { "Lat_DD": 42.23, "Lon_DD": -99.67, "ID": "A250529", "Name": "LONG PINE 20S", "State": "Nebraska", "elevation": 777, "status": "ACTIVE" }, "geometry": { "type": "Point", "coordinates": [ -99.67, 42.23 ] } },
{ "type": "Feature", "properties": { "Lat_DD": 40.3, "Lon_DD": -96.93, "ID": "A250629", "Name": "PLYMOUTH 4E", "State": "Nebraska", "elevation": 376, "status": "ACTIVE" }, "geometry": { "type": "Point", "coordinates": [ -96.93, 40.3 ] } },
{ "type": "Feature", "properties": { "Lat_DD": 40.75, "Lon_DD": -98.53, "ID": "A250829", "Name": "WOOD RIVER 5SE", "State": "Nebraska", "elevation": 592, "status": "ACTIVE" }, "geometry": { "type": "Point", "coordinates": [ -98.53, 40.75 ] } },
{ "type": "Feature", "properties": { "Lat_DD": 41.68, "Lon_DD": -101.97, "ID": "A251189", "Name": "BROADWATER 7N", "State": "Nebraska", "elevation": 1255, "status": "ACTIVE" }, "geometry": { "type": "Point", "coordinates": [ -101.97, 41.68 ] } },
{ "type": "Feature", "properties": { "Lat_DD": 41.15, "Lon_DD": -102.0, "ID": "A251227", "Name": "BIG SPRINGS 8NE", "State": "Nebraska", "elevation": 1135, "status": "ACTIVE" }, "geometry": { "type": "Point", "coordinates": [ -102.0, 41.15 ] } },
{ "type": "Feature", "properties": { "Lat_DD": 41.02, "Lon_DD": -101.97, "ID": "A251228", "Name": "BRULE 6SW", "State": "Nebraska", "elevation": 1068, "status": "ACTIVE" }, "geometry": { "type": "Point", "coordinates": [ -101.97, 41.02 ] } },
{ "type": "Feature", "properties": { "Lat_DD": 41.2, "Lon_DD": -101.65, "ID": "A251549", "Name": "KEYSTONE 3W BETA", "State": "Nebraska", "elevation": 965, "status": "ACTIVE" }, "geometry": { "type": "Point", "coordinates": [ -101.65, 41.2 ] } },
{ "type": "Feature", "properties": { "Lat_DD": 41.1, "Lon_DD": -98.05, "ID": "A251562", "Name": "CENTRAL CITY 3W", "State": "Nebraska", "elevation": 529, "status": "ACTIVE" }, "geometry": { "type": "Point", "coordinates": [ -98.05, 41.1 ] } },
{ "type": "Feature", "properties": { "Lat_DD": 42.75, "Lon_DD": -97.35, "ID": "A251589", "Name": "FORDYCE 4N", "State": "Nebraska", "elevation": 452, "status": "ACTIVE" }, "geometry": { "type": "Point", "coordinates": [ -97.35, 42.75 ] } },
{ "type": "Feature", "properties": { "Lat_DD": 40.4, "Lon_DD": -101.72, "ID": "A251599", "Name": "CHAMPION 5SE", "State": "Nebraska", "elevation": 1029, "status": "ACTIVE" }, "geometry": { "type": "Point", "coordinates": [ -101.72, 40.4 ] } },
{ "type": "Feature", "properties": { "Lat_DD": 41.7, "Lon_DD": -97.27, "ID": "A251661", "Name": "LEIGH 1W", "State": "Nebraska", "elevation": 499, "status": "ACTIVE" }, "geometry": { "type": "Point", "coordinates": [ -97.27, 41.7 ] } },
{ "type": "Feature", "properties": { "Lat_DD": 40.97, "Lon_DD": -99.95, "ID": "A251949", "Name": "COZAD 8N", "State": "Nebraska", "elevation": 793, "status": "ACTIVE" }, "geometry": { "type": "Point", "coordinates": [ -99.95, 40.97 ] } },
{ "type": "Feature", "properties": { "Lat_DD": 40.62, "Lon_DD": -100.5, "ID": "A252109", "Name": "CURTIS 1N", "State": "Nebraska", "elevation": 784, "status": "ACTIVE" }, "geometry": { "type": "Point", "coordinates": [ -100.5, 40.62 ] } },
{ "type": "Feature", "properties": { "Lat_DD": 41.93, "Lon_DD": -98.2, "ID": "A252599", "Name": "ELGIN 6W", "State": "Nebraska", "elevation": 619, "status": "ACTIVE" }, "geometry": { "type": "Point", "coordinates": [ -98.2, 41.93 ] } },
{ "type": "Feature", "properties": { "Lat_DD": 40.57, "Lon_DD": -96.62, "ID": "A252939", "Name": "FIRTH 3N", "State": "Nebraska", "elevation": 428, "status": "ACTIVE" }, "geometry": { "type": "Point", "coordinates": [ -96.62, 40.57 ] } },
{ "type": "Feature", "properties": { "Lat_DD": 40.67, "Lon_DD": -98.98, "ID": "A253059", "Name": "KEARNEY 5E", "State": "Nebraska", "elevation": 655, "status": "ACTIVE" }, "geometry": { "type": "Point", "coordinates": [ -98.98, 40.67 ] } },
{ "type": "Feature", "properties": { "Lat_DD": 42.75, "Lon_DD": -102.18, "ID": "A253359", "Name": "GORDON 4SE", "State": "Nebraska", "elevation": 1109, "status": "ACTIVE" }, "geometry": { "type": "Point", "coordinates": [ -102.18, 42.75 ] } },
{ "type": "Feature", "properties": { "Lat_DD": 40.95, "Lon_DD": -100.2, "ID": "A253369", "Name": "GOTHENBURG 2NW", "State": "Nebraska", "elevation": 808, "status": "ACTIVE" }, "geometry": { "type": "Point", "coordinates": [ -100.2, 40.95 ] } },
{ "type": "Feature", "properties": { "Lat_DD": 40.88, "Lon_DD": -98.52, "ID": "A253409", "Name": "ALDA 3W", "State": "Nebraska", "elevation": 507, "status": "ACTIVE" }, "geometry": { "type": "Point", "coordinates": [ -98.52, 40.88 ] } },
{ "type": "Feature", "properties": { "Lat_DD": 40.83, "Lon_DD": -101.7, "ID": "A253419", "Name": "GRANT 1E", "State": "Nebraska", "elevation": 1047, "status": "ACTIVE" }, "geometry": { "type": "Point", "coordinates": [ -101.7, 40.83 ] } },
{ "type": "Feature", "properties": { "Lat_DD": 42.08, "Lon_DD": -101.45, "ID": "A253479", "Name": "WHITMAN 5NE", "State": "Nebraska", "elevation": 1049, "status": "ACTIVE" }, "geometry": { "type": "Point", "coordinates": [ -101.45, 42.08 ] } },
{ "type": "Feature", "properties": { "Lat_DD": 41.9, "Lon_DD": -100.17, "ID": "A253549", "Name": "DUNNING 6NW", "State": "Nebraska", "elevation": 824, "status": "ACTIVE" }, "geometry": { "type": "Point", "coordinates": [ -100.17, 41.9 ] } },
{ "type": "Feature", "properties": { "Lat_DD": 42.73, "Lon_DD": -103.92, "ID": "A253615", "Name": "HARRISON 4NW", "State": "Nebraska", "elevation": 467, "status": "ACTIVE" }, "geometry": { "type": "Point", "coordinates": [ -103.92, 42.73 ] } },
{ "type": "Feature", "properties": { "Lat_DD": 40.55, "Lon_DD": -101.03, "ID": "A253699", "Name": "HAYES CENTER 3N", "State": "Nebraska", "elevation": 933, "status": "ACTIVE" }, "geometry": { "type": "Point", "coordinates": [ -101.03, 40.55 ] } },
{ "type": "Feature", "properties": { "Lat_DD": 42.83, "Lon_DD": -99.25, "ID": "A253829", "Name": "NAPER 12SW", "State": "Nebraska", "elevation": 619, "status": "ACTIVE" }, "geometry": { "type": "Point", "coordinates": [ -99.25, 42.83 ] } },
{ "type": "Feature", "properties": { "Lat_DD": 40.33, "Lon_DD": -99.37, "ID": "A253919", "Name": "RAGAN 5W", "State": "Nebraska", "elevation": 707, "status": "ACTIVE" }, "geometry": { "type": "Point", "coordinates": [ -99.37, 40.33 ] } },
{ "type": "Feature", "properties": { "Lat_DD": 40.5, "Lon_DD": -99.37, "ID": "A253929", "Name": "HOLDREGE 5N", "State": "Nebraska", "elevation": 707, "status": "ACTIVE" }, "geometry": { "type": "Point", "coordinates": [ -99.37, 40.5 ] } },
{ "type": "Feature", "properties": { "Lat_DD": 40.72, "Lon_DD": -99.02, "ID": "A254339", "Name": "KEARNEY 3E", "State": "Nebraska", "elevation": 555, "status": "ACTIVE" }, "geometry": { "type": "Point", "coordinates": [ -99.02, 40.72 ] } },
{ "type": "Feature", "properties": { "Lat_DD": 41.48, "Lon_DD": -102.35, "ID": "A254456", "Name": "OSHKOSH 6N", "State": "Nebraska", "elevation": 1147, "status": "ACTIVE" }, "geometry": { "type": "Point", "coordinates": [ -102.35, 41.48 ] } },
{ "type": "Feature", "properties": { "Lat_DD": 40.72, "Lon_DD": -99.75, "ID": "A254670", "Name": "LEXINGTON 4S", "State": "Nebraska", "elevation": 727, "status": "ACTIVE" }, "geometry": { "type": "Point", "coordinates": [ -99.75, 40.72 ] } },
{ "type": "Feature", "properties": { "Lat_DD": 40.85, "Lon_DD": -96.6, "ID": "A254699", "Name": "WALTON 5NW", "State": "Nebraska", "elevation": 347, "status": "ACTIVE" }, "geometry": { "type": "Point", "coordinates": [ -96.6, 40.85 ] } },
{ "type": "Feature", "properties": { "Lat_DD": 40.83, "Lon_DD": -96.7, "ID": "A254758", "Name": "LINCOLN 1700 N 10TH", "State": "Nebraska", "elevation": 351, "status": "ACTIVE" }, "geometry": { "type": "Point", "coordinates": [ -96.7, 40.83 ] } },
{ "type": "Feature", "properties": { "Lat_DD": 40.75, "Lon_DD": -96.68, "ID": "A254769", "Name": "LINCOLN 5700 S 27TH", "State": "Nebraska", "elevation": 379, "status": "ACTIVE" }, "geometry": { "type": "Point", "coordinates": [ -96.68, 40.75 ] } },
{ "type": "Feature", "properties": { "Lat_DD": 40.83, "Lon_DD": -96.65, "ID": "A254809", "Name": "LINCOLN 1500 N 45TH", "State": "Nebraska", "elevation": 357, "status": "ACTIVE" }, "geometry": { "type": "Point", "coordinates": [ -96.65, 40.83 ] } },
{ "type": "Feature", "properties": { "Lat_DD": 41.9, "Lon_DD": -96.27, "ID": "A255050", "Name": "DECATUR 7S", "State": "Nebraska", "elevation": 377, "status": "ACTIVE" }, "geometry": { "type": "Point", "coordinates": [ -96.27, 41.9 ] } },
{ "type": "Feature", "properties": { "Lat_DD": 40.12, "Lon_DD": -100.48, "ID": "A255311", "Name": "INDIANOLA 8SW", "State": "Nebraska", "elevation": 792, "status": "ACTIVE" }, "geometry": { "type": "Point", "coordinates": [ -100.48, 40.12 ] } },
{ "type": "Feature", "properties": { "Lat_DD": 41.15, "Lon_DD": -96.45, "ID": "A255363", "Name": "MEMPHIS 4N", "State": "Nebraska", "elevation": 351, "status": "ACTIVE" }, "geometry": { "type": "Point", "coordinates": [ -96.45, 41.15 ] } },
{ "type": "Feature", "properties": { "Lat_DD": 41.15, "Lon_DD": -96.42, "ID": "A255367", "Name": "MEMPHIS 5N", "State": "Nebraska", "elevation": 349, "status": "ACTIVE" }, "geometry": { "type": "Point", "coordinates": [ -96.42, 41.15 ] } },
{ "type": "Feature", "properties": { "Lat_DD": 41.15, "Lon_DD": -96.48, "ID": "A255369", "Name": "ITHACA 3E", "State": "Nebraska", "elevation": 366, "status": "ACTIVE" }, "geometry": { "type": "Point", "coordinates": [ -96.48, 41.15 ] } },
{ "type": "Feature", "properties": { "Lat_DD": 41.45, "Lon_DD": -99.78, "ID": "A255399", "Name": "MERNA 2SW", "State": "Nebraska", "elevation": 809, "status": "ACTIVE" }, "geometry": { "type": "Point", "coordinates": [ -99.78, 41.45 ] } },
{ "type": "Feature", "properties": { "Lat_DD": 42.45, "Lon_DD": -100.9, "ID": "A255479", "Name": "MULLEN 30N", "State": "Nebraska", "elevation": 948, "status": "ACTIVE" }, "geometry": { "type": "Point", "coordinates": [ -100.9, 42.45 ] } },
{ "type": "Feature", "properties": { "Lat_DD": 40.53, "Lon_DD": -99.05, "ID": "A255569", "Name": "AXTELL 5NE", "State": "Nebraska", "elevation": 658, "status": "ACTIVE" }, "geometry": { "type": "Point", "coordinates": [ -99.05, 40.53 ] } },
{ "type": "Feature", "properties": { "Lat_DD": 41.95, "Lon_DD": -103.7, "ID": "A255599", "Name": "SCOTTSBLUFF 6NW", "State": "Nebraska", "elevation": 1098, "status": "ACTIVE" }, "geometry": { "type": "Point", "coordinates": [ -103.7, 41.95 ] } },
{ "type": "Feature", "properties": { "Lat_DD": 41.38, "Lon_DD": -97.52, "ID": "A255649", "Name": "DUNCAN 2W", "State": "Nebraska", "elevation": 472, "status": "ACTIVE" }, "geometry": { "type": "Point", "coordinates": [ -97.52, 41.38 ] } },
{ "type": "Feature", "properties": { "Lat_DD": 40.7, "Lon_DD": -95.9, "ID": "A255829", "Name": "NEBRASKA CITY 3NW", "State": "Nebraska", "elevation": 329, "status": "ACTIVE" }, "geometry": { "type": "Point", "coordinates": [ -95.9, 40.7 ] } },
{ "type": "Feature", "properties": { "Lat_DD": 41.62, "Lon_DD": -96.38, "ID": "A255941", "Name": "WINSLOW 6E", "State": "Nebraska", "elevation": 384, "status": "ACTIVE" }, "geometry": { "type": "Point", "coordinates": [ -96.38, 41.62 ] } },
{ "type": "Feature", "properties": { "Lat_DD": 42.4, "Lon_DD": -96.97, "ID": "A256019", "Name": "CONCORD 2E", "State": "Nebraska", "elevation": 445, "status": "ACTIVE" }, "geometry": { "type": "Point", "coordinates": [ -96.97, 42.4 ] } },
{ "type": "Feature", "properties": { "Lat_DD": 41.15, "Lon_DD": -101.28, "ID": "A256079", "Name": "NORTH PLATTE 3SW", "State": "Nebraska", "elevation": 861, "status": "ACTIVE" }, "geometry": { "type": "Point", "coordinates": [ -101.28, 41.15 ] } },
{ "type": "Feature", "properties": { "Lat_DD": 41.83, "Lon_DD": -96.53, "ID": "A256149", "Name": "OAKLAND 4W", "State": "Nebraska", "elevation": 415, "status": "ACTIVE" }, "geometry": { "type": "Point", "coordinates": [ -96.53, 41.83 ] } },
{ "type": "Feature", "properties": { "Lat_DD": 42.47, "Lon_DD": -98.75, "ID": "A256299", "Name": "EMMET 3E", "State": "Nebraska", "elevation": 625, "status": "ACTIVE" }, "geometry": { "type": "Point", "coordinates": [ -98.75, 42.47 ] } },
{ "type": "Feature", "properties": { "Lat_DD": 41.62, "Lon_DD": -98.95, "ID": "A256339", "Name": "ORD 2N", "State": "Nebraska", "elevation": 625, "status": "ACTIVE" }, "geometry": { "type": "Point", "coordinates": [ -98.95, 41.62 ] } },
{ "type": "Feature", "properties": { "Lat_DD": 40.85, "Lon_DD": -96.48, "ID": "A256495", "Name": "EAGLE 3NW BETA", "State": "Nebraska", "elevation": 369, "status": "ACTIVE" }, "geometry": { "type": "Point", "coordinates": [ -96.48, 40.85 ] } },
{ "type": "Feature", "properties": { "Lat_DD": 42.17, "Lon_DD": -97.55, "ID": "A256720", "Name": "PIERCE 2W", "State": "Nebraska", "elevation": 509, "status": "ACTIVE" }, "geometry": { "type": "Point", "coordinates": [ -97.55, 42.17 ] } },
{ "type": "Feature", "properties": { "Lat_DD": 40.97, "Lon_DD": -95.88, "ID": "A256795", "Name": "PLATTSMOUTH 2SE", "State": "Nebraska", "elevation": 370, "status": "ACTIVE" }, "geometry": { "type": "Point", "coordinates": [ -95.88, 40.97 ] } },
{ "type": "Feature", "properties": { "Lat_DD": 40.08, "Lon_DD": -98.28, "ID": "A257079", "Name": "GUIDE ROCK 3E", "State": "Nebraska", "elevation": 524, "status": "ACTIVE" }, "geometry": { "type": "Point", "coordinates": [ -98.28, 40.08 ] } },
{ "type": "Feature", "properties": { "Lat_DD": 40.72, "Lon_DD": -96.62, "ID": "A257255", "Name": "LINCOLN 9100 S7", "State": "Nebraska", "elevation": 425, "status": "ACTIVE" }, "geometry": { "type": "Point", "coordinates": [ -96.62, 40.72 ] } },
{ "type": "Feature", "properties": { "Lat_DD": 40.02, "Lon_DD": -95.5, "ID": "A257401", "Name": "RULO 5SW", "State": "Nebraska", "elevation": 291, "status": "ACTIVE" }, "geometry": { "type": "Point", "coordinates": [ -95.5, 40.02 ] } },
{ "type": "Feature", "properties": { "Lat_DD": 41.88, "Lon_DD": -103.68, "ID": "A257679", "Name": "SCOTTSBLUFF 2NW", "State": "Nebraska", "elevation": 1208, "status": "ACTIVE" }, "geometry": { "type": "Point", "coordinates": [ -103.68, 41.88 ] } },
{ "type": "Feature", "properties": { "Lat_DD": 40.73, "Lon_DD": -98.77, "ID": "A257779", "Name": "SHELTON 2SW", "State": "Nebraska", "elevation": 614, "status": "ACTIVE" }, "geometry": { "type": "Point", "coordinates": [ -98.77, 40.73 ] } },
{ "type": "Feature", "properties": { "Lat_DD": 41.22, "Lon_DD": -103.02, "ID": "A257839", "Name": "SIDNEY 2NW", "State": "Nebraska", "elevation": 1317, "status": "ACTIVE" }, "geometry": { "type": "Point", "coordinates": [ -103.02, 41.22 ] } },
{ "type": "Feature", "properties": { "Lat_DD": 40.57, "Lon_DD": -98.13, "ID": "A257899", "Name": "HARVARD 4SW", "State": "Nebraska", "elevation": 552, "status": "ACTIVE" }, "geometry": { "type": "Point", "coordinates": [ -98.13, 40.57 ] } },
{ "type": "Feature", "properties": { "Lat_DD": 42.98, "Lon_DD": -100.2, "ID": "A258039", "Name": "SPARKS 5NE", "State": "Nebraska", "elevation": 772, "status": "ACTIVE" }, "geometry": { "type": "Point", "coordinates": [ -100.2, 42.98 ] } },
{ "type": "Feature", "properties": { "Lat_DD": 40.57, "Lon_DD": -99.68, "ID": "A258109", "Name": "SMITHFIELD 2E", "State": "Nebraska", "elevation": 768, "status": "ACTIVE" }, "geometry": { "type": "Point", "coordinates": [ -99.68, 40.57 ] } },
{ "type": "Feature", "properties": { "Lat_DD": 40.82, "Lon_DD": -100.98, "ID": "A258920", "Name": "DICKENS 1NE", "State": "Nebraska", "elevation": 965, "status": "ACTIVE" }, "geometry": { "type": "Point", "coordinates": [ -100.98, 40.82 ] } },
{ "type": "Feature", "properties": { "Lat_DD": 41.85, "Lon_DD": -96.75, "ID": "A259209", "Name": "WEST POINT 2W", "State": "Nebraska", "elevation": 442, "status": "ACTIVE" }, "geometry": { "type": "Point", "coordinates": [ -96.75, 41.85 ] } },
{ "type": "Feature", "properties": { "Lat_DD": 40.87, "Lon_DD": -97.63, "ID": "A259519", "Name": "YORK 2W", "State": "Nebraska", "elevation": 490, "status": "ACTIVE" }, "geometry": { "type": "Point", "coordinates": [ -97.63, 40.87 ] } },
{ "type": "Feature", "properties": { "Lat_DD": 42.02, "Lon_DD": -93.77, "ID": "A130200", "Name": "AMES AEA AGFARM", "State": "Iowa", "elevation": 335, "status": "ACTIVE" }, "geometry": { "type": "Point", "coordinates": [ -93.77, 42.02 ] } },
{ "type": "Feature", "properties": { "Lat_DD": 42.1, "Lon_DD": -93.58, "ID": "A130205", "Name": "AMES", "State": "Iowa", "elevation": 307, "status": "ACTIVE" }, "geometry": { "type": "Point", "coordinates": [ -93.58, 42.1 ] } },
{ "type": "Feature", "properties": { "Lat_DD": 42.92, "Lon_DD": -95.53, "ID": "A131079", "Name": "CALUMET", "State": "Iowa", "elevation": 437, "status": "ACTIVE" }, "geometry": { "type": "Point", "coordinates": [ -95.53, 42.92 ] } },
{ "type": "Feature", "properties": { "Lat_DD": 42.07, "Lon_DD": -95.83, "ID": "A131277", "Name": "CASTANA", "State": "Iowa", "elevation": 428, "status": "ACTIVE" }, "geometry": { "type": "Point", "coordinates": [ -95.83, 42.07 ] } },
{ "type": "Feature", "properties": { "Lat_DD": 41.9, "Lon_DD": -91.62, "ID": "A131324", "Name": "CEDAR RAPIDS", "State": "Iowa", "elevation": 235, "status": "ACTIVE" }, "geometry": { "type": "Point", "coordinates": [ -91.62, 41.9 ] } },
{ "type": "Feature", "properties": { "Lat_DD": 40.97, "Lon_DD": -93.42, "ID": "A131398", "Name": "CHARITON", "State": "Iowa", "elevation": 322, "status": "ACTIVE" }, "geometry": { "type": "Point", "coordinates": [ -93.42, 40.97 ] } },
{ "type": "Feature", "properties": { "Lat_DD": 41.18, "Lon_DD": -91.48, "ID": "A131909", "Name": "CRAWFORDSVILLE", "State": "Iowa", "elevation": 233, "status": "ACTIVE" }, "geometry": { "type": "Point", "coordinates": [ -91.48, 41.18 ] } },
{ "type": "Feature", "properties": { "Lat_DD": 41.28, "Lon_DD": -94.45, "ID": "A133489", "Name": "GREENFIELD", "State": "Iowa", "elevation": 416, "status": "ACTIVE" }, "geometry": { "type": "Point", "coordinates": [ -94.45, 41.28 ] } },
{ "type": "Feature", "properties": { "Lat_DD": 41.32, "Lon_DD": -95.17, "ID": "A133489", "Name": "LEWIS ARMSTRONG FARM", "State": "Iowa", "elevation": 389, "status": "ACTIVE" }, "geometry": { "type": "Point", "coordinates": [ -95.17, 41.32 ] } },
{ "type": "Feature", "properties": { "Lat_DD": 42.93, "Lon_DD": -93.8, "ID": "A134308", "Name": "KANAWHA EAST", "State": "Iowa", "elevation": 358, "status": "ACTIVE" }, "geometry": { "type": "Point", "coordinates": [ -93.8, 42.93 ] } },
{ "type": "Feature", "properties": { "Lat_DD": 41.47, "Lon_DD": -91.87, "ID": "A135739", "Name": "WELLMAN", "State": "Iowa", "elevation": 244, "status": "ACTIVE" }, "geometry": { "type": "Point", "coordinates": [ -91.87, 41.47 ] } },
{ "type": "Feature", "properties": { "Lat_DD": 41.35, "Lon_DD": -91.13, "ID": "A135837", "Name": "MUSCATINE", "State": "Iowa", "elevation": 171, "status": "ACTIVE" }, "geometry": { "type": "Point", "coordinates": [ -91.13, 41.35 ] } },
{ "type": "Feature", "properties": { "Lat_DD": 42.93, "Lon_DD": -92.57, "ID": "A135872", "Name": "NASHUA SW", "State": "Iowa", "elevation": 319, "status": "ACTIVE" }, "geometry": { "type": "Point", "coordinates": [ -92.57, 42.93 ] } },
{ "type": "Feature", "properties": { "Lat_DD": 43.28, "Lon_DD": -96.18, "ID": "A137159", "Name": "DOON", "State": "Iowa", "elevation": 413, "status": "ACTIVE" }, "geometry": { "type": "Point", "coordinates": [ -96.18, 43.28 ] } },
{ "type": "Feature", "properties": { "Lat_DD": 43.37, "Lon_DD": -95.65, "ID": "A137669", "Name": "CEA", "State": "Iowa", "elevation": 477, "status": "ACTIVE" }, "geometry": { "type": "Point", "coordinates": [ -95.65, 43.37 ] } },
{ "type": "Feature", "properties": { "Lat_DD": 42.58, "Lon_DD": -95.02, "ID": "A137978", "Name": "NEWELL", "State": "Iowa", "elevation": 383, "status": "ACTIVE" }, "geometry": { "type": "Point", "coordinates": [ -95.02, 42.58 ] } },
{ "type": "Feature", "properties": { "Lat_DD": 40.75, "Lon_DD": -91.42, "ID": "A138979", "Name": "WEST POINT", "State": "Iowa", "elevation": 229, "status": "ACTIVE" }, "geometry": { "type": "Point", "coordinates": [ -91.42, 40.75 ] } },
{ "type": "Feature", "properties": { "Lat_DD": 40.15, "Lon_DD": -103.15, "ID": "A050119", "Name": "AKRON", "State": "Colorado", "elevation": 1384, "status": "ACTIVE" }, "geometry": { "type": "Point", "coordinates": [ -103.15, 40.15 ] } },
{ "type": "Feature", "properties": { "Lat_DD": 39.35, "Lon_DD": -107.2, "ID": "A050514", "Name": "CARBONDALE", "State": "Colorado", "elevation": 1918, "status": "ACTIVE" }, "geometry": { "type": "Point", "coordinates": [ -107.2, 39.35 ] } },
{ "type": "Feature", "properties": { "Lat_DD": 39.63, "Lon_DD": -106.95, "ID": "A050515", "Name": "GYPSUM", "State": "Colorado", "elevation": 1950, "status": "ACTIVE" }, "geometry": { "type": "Point", "coordinates": [ -106.95, 39.63 ] } },
{ "type": "Feature", "properties": { "Lat_DD": 38.32, "Lon_DD": -108.85, "ID": "A050581", "Name": "BEDROCK", "State": "Colorado", "elevation": 1516, "status": "ACTIVE" }, "geometry": { "type": "Point", "coordinates": [ -108.85, 38.32 ] } },
{ "type": "Feature", "properties": { "Lat_DD": 37.38, "Lon_DD": -105.55, "ID": "A050779", "Name": "BLANCA", "State": "Colorado", "elevation": 2363, "status": "ACTIVE" }, "geometry": { "type": "Point", "coordinates": [ -105.55, 37.38 ] } },
{ "type": "Feature", "properties": { "Lat_DD": 38.22, "Lon_DD": -104.33, "ID": "A050839", "Name": "AVONDALE", "State": "Colorado", "elevation": 1396, "status": "ACTIVE" }, "geometry": { "type": "Point", "coordinates": [ -104.33, 38.22 ] } },
{ "type": "Feature", "properties": { "Lat_DD": 40.6, "Lon_DD": -104.32, "ID": "A050949", "Name": "BRIGGSDALE", "State": "Colorado", "elevation": 1481, "status": "ACTIVE" }, "geometry": { "type": "Point", "coordinates": [ -104.32, 40.6 ] } },
{ "type": "Feature", "properties": { "Lat_DD": 38.83, "Lon_DD": -106.13, "ID": "A051079", "Name": "BUENA VISTA", "State": "Colorado", "elevation": 2408, "status": "ACTIVE" }, "geometry": { "type": "Point", "coordinates": [ -106.13, 38.83 ] } },
{ "type": "Feature", "properties": { "Lat_DD": 39.27, "Lon_DD": -102.12, "ID": "A051129", "Name": "BURLINGTON SOUTH", "State": "Colorado", "elevation": 1271, "status": "ACTIVE" }, "geometry": { "type": "Point", "coordinates": [ -102.12, 39.27 ] } },
{ "type": "Feature", "properties": { "Lat_DD": 39.33, "Lon_DD": -102.2, "ID": "A051139", "Name": "BURLINGTON", "State": "Colorado", "elevation": 1240, "status": "ACTIVE" }, "geometry": { "type": "Point", "coordinates": [ -102.2, 39.33 ] } },
{ "type": "Feature", "properties": { "Lat_DD": 39.78, "Lon_DD": -103.8, "ID": "A051179", "Name": "EASTERN ADAMS CO", "State": "Colorado", "elevation": 1496, "status": "ACTIVE" }, "geometry": { "type": "Point", "coordinates": [ -103.8, 39.78 ] } },
{ "type": "Feature", "properties": { "Lat_DD": 38.42, "Lon_DD": -105.18, "ID": "A051299", "Name": "CANON CITY", "State": "Colorado", "elevation": 1607, "status": "ACTIVE" }, "geometry": { "type": "Point", "coordinates": [ -105.18, 38.42 ] } },
{ "type": "Feature", "properties": { "Lat_DD": 37.7, "Lon_DD": -106.15, "ID": "A051459", "Name": "CENTER", "State": "Colorado", "elevation": 2348, "status": "ACTIVE" }, "geometry": { "type": "Point", "coordinates": [ -106.15, 37.7 ] } },
{ "type": "Feature", "properties": { "Lat_DD": 38.53, "Lon_DD": -102.5, "ID": "A051589", "Name": "SAND CREEK MASSACRE", "State": "Colorado", "elevation": 1208, "status": "ACTIVE" }, "geometry": { "type": "Point", "coordinates": [ -102.5, 38.53 ] } },
{ "type": "Feature", "properties": { "Lat_DD": 39.35, "Lon_DD": -105.82, "ID": "A051809", "Name": "JEFFERSON", "State": "Colorado", "elevation": 2883, "status": "ACTIVE" }, "geometry": { "type": "Point", "coordinates": [ -105.82, 39.35 ] } },
{ "type": "Feature", "properties": { "Lat_DD": 37.23, "Lon_DD": -108.68, "ID": "A051888", "Name": "YUCCA HOUSE", "State": "Colorado", "elevation": 1821, "status": "ACTIVE" }, "geometry": { "type": "Point", "coordinates": [ -108.68, 37.23 ] } },
{ "type": "Feature", "properties": { "Lat_DD": 37.22, "Lon_DD": -108.67, "ID": "A051889", "Name": "CORTEZ", "State": "Colorado", "elevation": 1833, "status": "ACTIVE" }, "geometry": { "type": "Point", "coordinates": [ -108.67, 37.22 ] } },
{ "type": "Feature", "properties": { "Lat_DD": 37.82, "Lon_DD": -106.03, "ID": "A052189", "Name": "CENTER NO 2", "State": "Colorado", "elevation": 2319, "status": "ACTIVE" }, "geometry": { "type": "Point", "coordinates": [ -106.03, 37.82 ] } },
{ "type": "Feature", "properties": { "Lat_DD": 38.83, "Lon_DD": -107.97, "ID": "A052196", "Name": "ECKERT", "State": "Colorado", "elevation": 1683, "status": "ACTIVE" }, "geometry": { "type": "Point", "coordinates": [ -107.97, 38.83 ] } },
{ "type": "Feature", "properties": { "Lat_DD": 38.73, "Lon_DD": -108.12, "ID": "A052199", "Name": "DELTA", "State": "Colorado", "elevation": 1527, "status": "ACTIVE" }, "geometry": { "type": "Point", "coordinates": [ -108.12, 38.73 ] } },
{ "type": "Feature", "properties": { "Lat_DD": 37.72, "Lon_DD": -108.95, "ID": "A052349", "Name": "DOVE CREEK", "State": "Colorado", "elevation": 2010, "status": "ACTIVE" }, "geometry": { "type": "Point", "coordinates": [ -108.95, 37.72 ] } },
{ "type": "Feature", "properties": { "Lat_DD": 40.58, "Lon_DD": -105.13, "ID": "A053009", "Name": "FT COLLINS AERC", "State": "Colorado", "elevation": 1561, "status": "ACTIVE" }, "geometry": { "type": "Point", "coordinates": [ -105.13, 40.58 ] } },
{ "type": "Feature", "properties": { "Lat_DD": 40.0, "Lon_DD": -104.85, "ID": "A053029", "Name": "FORT LUPTON", "State": "Colorado", "elevation": 1541, "status": "ACTIVE" }, "geometry": { "type": "Point", "coordinates": [ -104.85, 40.0 ] } },
{ "type": "Feature", "properties": { "Lat_DD": 38.13, "Lon_DD": -104.03, "ID": "A053079", "Name": "FOWLER", "State": "Colorado", "elevation": 1321, "status": "ACTIVE" }, "geometry": { "type": "Point", "coordinates": [ -104.03, 38.13 ] } },
{ "type": "Feature", "properties": { "Lat_DD": 39.17, "Lon_DD": -108.75, "ID": "A053149", "Name": "FRUITA EXP STA (CSU)", "State": "Colorado", "elevation": 1377, "status": "ACTIVE" }, "geometry": { "type": "Point", "coordinates": [ -108.75, 39.17 ] } },
{ "type": "Feature", "properties": { "Lat_DD": 40.13, "Lon_DD": -106.42, "ID": "A053429", "Name": "WOLFORD MTN RES", "State": "Colorado", "elevation": 2292, "status": "ACTIVE" }, "geometry": { "type": "Point", "coordinates": [ -106.42, 40.13 ] } },
{ "type": "Feature", "properties": { "Lat_DD": 38.13, "Lon_DD": -102.23, "ID": "A053479", "Name": "HOLLY NO 2", "State": "Colorado", "elevation": 1088, "status": "ACTIVE" }, "geometry": { "type": "Point", "coordinates": [ -102.23, 38.13 ] } },
{ "type": "Feature", "properties": { "Lat_DD": 39.03, "Lon_DD": -108.47, "ID": "A053488", "Name": "ORCHARD MESA", "State": "Colorado", "elevation": 1402, "status": "ACTIVE" }, "geometry": { "type": "Point", "coordinates": [ -108.47, 39.03 ] } },
{ "type": "Feature", "properties": { "Lat_DD": 38.78, "Lon_DD": -107.8, "ID": "A053489", "Name": "ROGERS MESA (CSU)", "State": "Colorado", "elevation": 1691, "status": "ACTIVE" }, "geometry": { "type": "Point", "coordinates": [ -107.8, 38.78 ] } },
{ "type": "Feature", "properties": { "Lat_DD": 40.1, "Lon_DD": -105.95, "ID": "A053500", "Name": "GRANBY", "State": "Colorado", "elevation": 2384, "status": "ACTIVE" }, "geometry": { "type": "Point", "coordinates": [ -105.95, 40.1 ] } },
{ "type": "Feature", "properties": { "Lat_DD": 40.43, "Lon_DD": -104.63, "ID": "A053549", "Name": "GREELEY 4", "State": "Colorado", "elevation": 1427, "status": "ACTIVE" }, "geometry": { "type": "Point", "coordinates": [ -104.63, 40.43 ] } },
{ "type": "Feature", "properties": { "Lat_DD": 40.47, "Lon_DD": -104.7, "ID": "A053550", "Name": "LUCERNE", "State": "Colorado", "elevation": 1448, "status": "ACTIVE" }, "geometry": { "type": "Point", "coordinates": [ -104.7, 40.47 ] } },
{ "type": "Feature", "properties": { "Lat_DD": 40.3, "Lon_DD": -104.73, "ID": "A053551", "Name": "PECKHAM", "State": "Colorado", "elevation": 1433, "status": "ACTIVE" }, "geometry": { "type": "Point", "coordinates": [ -104.73, 40.3 ] } },
{ "type": "Feature", "properties": { "Lat_DD": 40.33, "Lon_DD": -104.63, "ID": "A053558", "Name": "LA SALLE", "State": "Colorado", "elevation": 1425, "status": "ACTIVE" }, "geometry": { "type": "Point", "coordinates": [ -104.63, 40.33 ] } },
{ "type": "Feature", "properties": { "Lat_DD": 40.57, "Lon_DD": -104.72, "ID": "A053559", "Name": "AULT", "State": "Colorado", "elevation": 1497, "status": "ACTIVE" }, "geometry": { "type": "Point", "coordinates": [ -104.72, 40.57 ] } },
{ "type": "Feature", "properties": { "Lat_DD": 38.6, "Lon_DD": -106.9, "ID": "A053662", "Name": "GUNNISON", "State": "Colorado", "elevation": 2406, "status": "ACTIVE" }, "geometry": { "type": "Point", "coordinates": [ -106.9, 38.6 ] } },
{ "type": "Feature", "properties": { "Lat_DD": 40.48, "Lon_DD": -107.18, "ID": "A053869", "Name": "HAYDEN", "State": "Colorado", "elevation": 1967, "status": "ACTIVE" }, "geometry": { "type": "Point", "coordinates": [ -107.18, 40.48 ] } },
{ "type": "Feature", "properties": { "Lat_DD": 40.85, "Lon_DD": -106.33, "ID": "A054059", "Name": "COWDREY", "State": "Colorado", "elevation": 2406, "status": "ACTIVE" }, "geometry": { "type": "Point", "coordinates": [ -106.33, 40.85 ] } },
{ "type": "Feature", "properties": { "Lat_DD": 38.07, "Lon_DD": -102.08, "ID": "A054079", "Name": "HOLLY", "State": "Colorado", "elevation": 1108, "status": "ACTIVE" }, "geometry": { "type": "Point", "coordinates": [ -102.08, 38.07 ] } },
{ "type": "Feature", "properties": { "Lat_DD": 40.48, "Lon_DD": -102.08, "ID": "A054089", "Name": "HOLYOKE", "State": "Colorado", "elevation": 1138, "status": "ACTIVE" }, "geometry": { "type": "Point", "coordinates": [ -102.08, 40.48 ] } },
{ "type": "Feature", "properties": { "Lat_DD": 39.72, "Lon_DD": -102.3, "ID": "A054249", "Name": "IDALIA", "State": "Colorado", "elevation": 1212, "status": "ACTIVE" }, "geometry": { "type": "Point", "coordinates": [ -102.3, 39.72 ] } },
{ "type": "Feature", "properties": { "Lat_DD": 37.13, "Lon_DD": -107.72, "ID": "A054250", "Name": "IGNACIO", "State": "Colorado", "elevation": 1994, "status": "ACTIVE" }, "geometry": { "type": "Point", "coordinates": [ -107.72, 37.13 ] } },
{ "type": "Feature", "properties": { "Lat_DD": 37.97, "Lon_DD": -102.72, "ID": "A054389", "Name": "LAMAR 3", "State": "Colorado", "elevation": 1194, "status": "ACTIVE" }, "geometry": { "type": "Point", "coordinates": [ -102.72, 37.97 ] } },
{ "type": "Feature", "properties": { "Lat_DD": 37.12, "Lon_DD": -108.15, "ID": "A054614", "Name": "KLINE", "State": "Colorado", "elevation": 2036, "status": "ACTIVE" }, "geometry": { "type": "Point", "coordinates": [ -108.15, 37.12 ] } },
{ "type": "Feature", "properties": { "Lat_DD": 40.1, "Lon_DD": -106.3, "ID": "A054664", "Name": "KREMMLING", "State": "Colorado", "elevation": 2271, "status": "ACTIVE" }, "geometry": { "type": "Point", "coordinates": [ -106.3, 40.1 ] } },
{ "type": "Feature", "properties": { "Lat_DD": 38.07, "Lon_DD": -103.37, "ID": "A054729", "Name": "LAJUNTA", "State": "Colorado", "elevation": 1207, "status": "ACTIVE" }, "geometry": { "type": "Point", "coordinates": [ -103.37, 38.07 ] } },
{ "type": "Feature", "properties": { "Lat_DD": 37.97, "Lon_DD": -102.6, "ID": "A054779", "Name": "LAMAR 1", "State": "Colorado", "elevation": 1151, "status": "ACTIVE" }, "geometry": { "type": "Point", "coordinates": [ -102.6, 37.97 ] } },
{ "type": "Feature", "properties": { "Lat_DD": 38.13, "Lon_DD": -102.87, "ID": "A054839", "Name": "MCCLAVE", "State": "Colorado", "elevation": 1187, "status": "ACTIVE" }, "geometry": { "type": "Point", "coordinates": [ -102.87, 38.13 ] } },
{ "type": "Feature", "properties": { "Lat_DD": 40.77, "Lon_DD": -103.05, "ID": "A054929", "Name": "ILIFF", "State": "Colorado", "elevation": 1165, "status": "ACTIVE" }, "geometry": { "type": "Point", "coordinates": [ -103.05, 40.77 ] } },
{ "type": "Feature", "properties": { "Lat_DD": 39.65, "Lon_DD": -102.62, "ID": "A054999", "Name": "KIRK", "State": "Colorado", "elevation": 1284, "status": "ACTIVE" }, "geometry": { "type": "Point", "coordinates": [ -102.62, 39.65 ] } },
{ "type": "Feature", "properties": { "Lat_DD": 37.32, "Lon_DD": -108.33, "ID": "A055327", "Name": "MANCOS", "State": "Colorado", "elevation": 2051, "status": "ACTIVE" }, "geometry": { "type": "Point", "coordinates": [ -108.33, 37.32 ] } },
{ "type": "Feature", "properties": { "Lat_DD": 37.25, "Lon_DD": -105.97, "ID": "A055329", "Name": "LAJARA", "State": "Colorado", "elevation": 2315, "status": "ACTIVE" }, "geometry": { "type": "Point", "coordinates": [ -105.97, 37.25 ] } },
{ "type": "Feature", "properties": { "Lat_DD": 40.0, "Lon_DD": -107.92, "ID": "A055484", "Name": "MEEKER", "State": "Colorado", "elevation": 1911, "status": "ACTIVE" }, "geometry": { "type": "Point", "coordinates": [ -107.92, 40.0 ] } },
{ "type": "Feature", "properties": { "Lat_DD": 37.18, "Lon_DD": -108.93, "ID": "A055539", "Name": "TOWAOC", "State": "Colorado", "elevation": 1621, "status": "ACTIVE" }, "geometry": { "type": "Point", "coordinates": [ -108.93, 37.18 ] } },
{ "type": "Feature", "properties": { "Lat_DD": 38.56, "Lon_DD": -107.92, "ID": "A055717", "Name": "MONTROSE", "State": "Colorado", "elevation": 1722, "status": "ACTIVE" }, "geometry": { "type": "Point", "coordinates": [ -107.92, 38.56 ] } },
{ "type": "Feature", "properties": { "Lat_DD": 38.15, "Lon_DD": -108.3, "ID": "A056012", "Name": "NORWOOD", "State": "Colorado", "elevation": 1148, "status": "ACTIVE" }, "geometry": { "type": "Point", "coordinates": [ -108.3, 38.15 ] } },
{ "type": "Feature", "properties": { "Lat_DD": 38.63, "Lon_DD": -108.05, "ID": "A056089", "Name": "OLATHE", "State": "Colorado", "elevation": 1623, "status": "ACTIVE" }, "geometry": { "type": "Point", "coordinates": [ -108.05, 38.63 ] } },
{ "type": "Feature", "properties": { "Lat_DD": 37.27, "Lon_DD": -106.98, "ID": "A056258", "Name": "PAGOSA SPRINGS", "State": "Colorado", "elevation": 2110, "status": "ACTIVE" }, "geometry": { "type": "Point", "coordinates": [ -106.98, 37.27 ] } },
{ "type": "Feature", "properties": { "Lat_DD": 40.42, "Lon_DD": -102.48, "ID": "A056298", "Name": "PAOLI", "State": "Colorado", "elevation": 1181, "status": "ACTIVE" }, "geometry": { "type": "Point", "coordinates": [ -102.48, 40.42 ] } },
{ "type": "Feature", "properties": { "Lat_DD": 40.67, "Lon_DD": -102.65, "ID": "A056299", "Name": "HAXTUN", "State": "Colorado", "elevation": 1231, "status": "ACTIVE" }, "geometry": { "type": "Point", "coordinates": [ -102.65, 40.67 ] } },
{ "type": "Feature", "properties": { "Lat_DD": 39.55, "Lon_DD": -104.82, "ID": "A056323", "Name": "PARKER", "State": "Colorado", "elevation": 1772, "status": "ACTIVE" }, "geometry": { "type": "Point", "coordinates": [ -104.82, 39.55 ] } },
{ "type": "Feature", "properties": { "Lat_DD": 38.4, "Lon_DD": -105.0, "ID": "A056410", "Name": "PENROSE", "State": "Colorado", "elevation": 1625, "status": "ACTIVE" }, "geometry": { "type": "Point", "coordinates": [ -105.0, 38.4 ] } },
{ "type": "Feature", "properties": { "Lat_DD": 40.82, "Lon_DD": -105.27, "ID": "A056922", "Name": "CHEROKEE PARK", "State": "Colorado", "elevation": 1815, "status": "ACTIVE" }, "geometry": { "type": "Point", "coordinates": [ -105.27, 40.82 ] } },
{ "type": "Feature", "properties": { "Lat_DD": 39.57, "Lon_DD": -107.7, "ID": "A057034", "Name": "SILT", "State": "Colorado", "elevation": 1713, "status": "ACTIVE" }, "geometry": { "type": "Point", "coordinates": [ -107.7, 39.57 ] } },
{ "type": "Feature", "properties": { "Lat_DD": 38.03, "Lon_DD": -103.7, "ID": "A057169", "Name": "ROCKY FORD", "State": "Colorado", "elevation": 1274, "status": "ACTIVE" }, "geometry": { "type": "Point", "coordinates": [ -103.7, 38.03 ] } },
{ "type": "Feature", "properties": { "Lat_DD": 40.37, "Lon_DD": -104.53, "ID": "A057189", "Name": "KERSEY", "State": "Colorado", "elevation": 1410, "status": "ACTIVE" }, "geometry": { "type": "Point", "coordinates": [ -104.53, 40.37 ] } },
{ "type": "Feature", "properties": { "Lat_DD": 40.35, "Lon_DD": -104.48, "ID": "A057190", "Name": "KERSEY 2", "State": "Colorado ", "elevation": 1391, "status": "ACTIVE" }, "geometry": { "type": "Point", "coordinates": [ -104.48, 40.35 ] } },
{ "type": "Feature", "properties": { "Lat_DD": 38.57, "Lon_DD": -106.05, "ID": "A057379", "Name": "SALIDA", "State": "Colorado", "elevation": 2203, "status": "ACTIVE" }, "geometry": { "type": "Point", "coordinates": [ -106.05, 38.57 ] } },
{ "type": "Feature", "properties": { "Lat_DD": 37.13, "Lon_DD": -105.62, "ID": "A057439", "Name": "SAN ACACIO", "State": "Colorado", "elevation": 2363, "status": "ACTIVE" }, "geometry": { "type": "Point", "coordinates": [ -105.62, 37.13 ] } },
{ "type": "Feature", "properties": { "Lat_DD": 39.12, "Lon_DD": -102.93, "ID": "A057519", "Name": "SEIBERT", "State": "Colorado", "elevation": 1479, "status": "ACTIVE" }, "geometry": { "type": "Point", "coordinates": [ -102.93, 39.12 ] } },
{ "type": "Feature", "properties": { "Lat_DD": 40.53, "Lon_DD": -106.38, "ID": "A057849", "Name": "HEBRON", "State": "Colorado", "elevation": 2490, "status": "ACTIVE" }, "geometry": { "type": "Point", "coordinates": [ -106.38, 40.53 ] } },
{ "type": "Feature", "properties": { "Lat_DD": 40.27, "Lon_DD": -103.02, "ID": "A057959", "Name": "STERLING", "State": "Colorado", "elevation": 1200, "status": "ACTIVE" }, "geometry": { "type": "Point", "coordinates": [ -103.02, 40.27 ] } },
{ "type": "Feature", "properties": { "Lat_DD": 39.28, "Lon_DD": -102.52, "ID": "A058019", "Name": "STRATTON", "State": "Colorado", "elevation": 1350, "status": "ACTIVE" }, "geometry": { "type": "Point", "coordinates": [ -102.52, 39.28 ] } },
{ "type": "Feature", "properties": { "Lat_DD": 37.28, "Lon_DD": -104.32, "ID": "A058439", "Name": "HOEHNE", "State": "Colorado", "elevation": 1714, "status": "ACTIVE" }, "geometry": { "type": "Point", "coordinates": [ -104.32, 37.28 ] } },
{ "type": "Feature", "properties": { "Lat_DD": 38.15, "Lon_DD": -102.6, "ID": "A058519", "Name": "LAMAR 4", "State": "Colorado", "elevation": 1129, "status": "ACTIVE" }, "geometry": { "type": "Point", "coordinates": [ -102.6, 38.15 ] } },
{ "type": "Feature", "properties": { "Lat_DD": 40.6, "Lon_DD": -106.3, "ID": "A058759", "Name": "LARAND", "State": "Colorado", "elevation": 2515, "status": "ACTIVE" }, "geometry": { "type": "Point", "coordinates": [ -106.3, 40.6 ] } },
{ "type": "Feature", "properties": { "Lat_DD": 37.37, "Lon_DD": -102.3, "ID": "A058799", "Name": "WALSH", "State": "Colorado", "elevation": 1210, "status": "ACTIVE" }, "geometry": { "type": "Point", "coordinates": [ -102.3, 37.37 ] } },
{ "type": "Feature", "properties": { "Lat_DD": 40.65, "Lon_DD": -105.0, "ID": "A058909", "Name": "ARDEC (CSU)", "State": "Colorado", "elevation": 1540, "status": "ACTIVE" }, "geometry": { "type": "Point", "coordinates": [ -105.0, 40.65 ] } },
{ "type": "Feature", "properties": { "Lat_DD": 38.15, "Lon_DD": -105.5, "ID": "A058939", "Name": "WESTCLIFFE", "State": "Colorado", "elevation": 2357, "status": "ACTIVE" }, "geometry": { "type": "Point", "coordinates": [ -105.5, 38.15 ] } },
{ "type": "Feature", "properties": { "Lat_DD": 40.22, "Lon_DD": -102.27, "ID": "A059243", "Name": "WRAY 2", "State": "Colorado ", "elevation": 1139, "status": "ACTIVE" }, "geometry": { "type": "Point", "coordinates": [ -102.27, 40.22 ] } },
{ "type": "Feature", "properties": { "Lat_DD": 37.52, "Lon_DD": -108.72, "ID": "A059279", "Name": "YELLOW JACKET", "State": "Colorado", "elevation": 2103, "status": "ACTIVE" }, "geometry": { "type": "Point", "coordinates": [ -108.72, 37.52 ] } },
{ "type": "Feature", "properties": { "Lat_DD": 37.05, "Lon_DD": -98.08, "ID": "A140264", "Name": "ANTHONY 7SW", "State": "Kansas", "elevation": 428, "status": "ACTIVE" }, "geometry": { "type": "Point", "coordinates": [ -98.08, 37.05 ] } },
{ "type": "Feature", "properties": { "Lat_DD": 39.12, "Lon_DD": -96.63, "ID": "A140365", "Name": "ASHLAND BOTTOMS", "State": "Kansas", "elevation": 325, "status": "ACTIVE" }, "geometry": { "type": "Point", "coordinates": [ -96.63, 39.12 ] } },
{ "type": "Feature", "properties": { "Lat_DD": 37.05, "Lon_DD": -99.77, "ID": "A140366", "Name": "ASHLAND 8S", "State": "Kansas", "elevation": 562, "status": "ACTIVE" }, "geometry": { "type": "Point", "coordinates": [ -99.77, 37.05 ] } },
{ "type": "Feature", "properties": { "Lat_DD": 37.9, "Lon_DD": -99.87, "ID": "A140677", "Name": "SPEARVILLE", "State": "Kansas", "elevation": 707, "status": "ACTIVE" }, "geometry": { "type": "Point", "coordinates": [ -99.87, 37.9 ] } },
{ "type": "Feature", "properties": { "Lat_DD": 39.8, "Lon_DD": -97.68, "ID": "A140682", "Name": "BELLEVILLE 2W", "State": "Kansas", "elevation": 471, "status": "ACTIVE" }, "geometry": { "type": "Point", "coordinates": [ -97.68, 39.8 ] } },
{ "type": "Feature", "properties": { "Lat_DD": 39.43, "Lon_DD": -98.22, "ID": "A140693", "Name": "MITCHELL", "State": "Kansas", "elevation": 453, "status": "ACTIVE" }, "geometry": { "type": "Point", "coordinates": [ -98.22, 39.43 ] } },
{ "type": "Feature", "properties": { "Lat_DD": 37.6, "Lon_DD": -101.73, "ID": "A140802", "Name": "JOHNSON CITY 2N", "State": "Kansas", "elevation": 1000, "status": "ACTIVE" }, "geometry": { "type": "Point", "coordinates": [ -101.73, 37.6 ] } },
{ "type": "Feature", "properties": { "Lat_DD": 37.78, "Lon_DD": -100.28, "ID": "A141522", "Name": "GRAY", "State": "Kansas", "elevation": 794, "status": "ACTIVE" }, "geometry": { "type": "Point", "coordinates": [ -100.28, 37.78 ] } },
{ "type": "Feature", "properties": { "Lat_DD": 39.42, "Lon_DD": -97.13, "ID": "A141559", "Name": "CLAY CENTER", "State": "Kansas", "elevation": 388, "status": "ACTIVE" }, "geometry": { "type": "Point", "coordinates": [ -97.13, 39.42 ] } },
{ "type": "Feature", "properties": { "Lat_DD": 39.38, "Lon_DD": -101.07, "ID": "A141689", "Name": "COLBY", "State": "Kansas", "elevation": 966, "status": "ACTIVE" }, "geometry": { "type": "Point", "coordinates": [ -101.07, 39.38 ] } },
{ "type": "Feature", "properties": { "Lat_DD": 37.18, "Lon_DD": -94.98, "ID": "A141740", "Name": "CHEROKEE  ", "State": "Kansas", "elevation": 265, "status": "ACTIVE" }, "geometry": { "type": "Point", "coordinates": [ -94.98, 37.18 ] } },
{ "type": "Feature", "properties": { "Lat_DD": 37.45, "Lon_DD": -97.62, "ID": "A141795", "Name": "VIOLA 2SW", "State": "Kansas", "elevation": 414, "status": "ACTIVE" }, "geometry": { "type": "Point", "coordinates": [ -97.62, 37.45 ] } },
{ "type": "Feature", "properties": { "Lat_DD": 37.8, "Lon_DD": -96.88, "ID": "A142401", "Name": "BUTLER COLLEGE", "State": "Kansas", "elevation": 401, "status": "ACTIVE" }, "geometry": { "type": "Point", "coordinates": [ -96.88, 37.8 ] } },
{ "type": "Feature", "properties": { "Lat_DD": 38.35, "Lon_DD": -96.63, "ID": "A142472", "Name": "ELMDALE 1SE", "State": "Kansas", "elevation": 406, "status": "ACTIVE" }, "geometry": { "type": "Point", "coordinates": [ -96.63, 38.35 ] } },
{ "type": "Feature", "properties": { "Lat_DD": 38.72, "Lon_DD": -97.45, "ID": "A142478", "Name": "GYPSUM 1NW", "State": "Kansas", "elevation": 372, "status": "ACTIVE" }, "geometry": { "type": "Point", "coordinates": [ -97.45, 38.72 ] } },
{ "type": "Feature", "properties": { "Lat_DD": 38.03, "Lon_DD": -101.03, "ID": "A142972", "Name": "ROTH TECH FARM", "State": "Kansas", "elevation": 895, "status": "ACTIVE" }, "geometry": { "type": "Point", "coordinates": [ -101.03, 38.03 ] } },
{ "type": "Feature", "properties": { "Lat_DD": 37.77, "Lon_DD": -100.97, "ID": "A142973", "Name": "WILLIS TECH FARM", "State": "Kansas", "elevation": 894, "status": "ACTIVE" }, "geometry": { "type": "Point", "coordinates": [ -100.97, 37.77 ] } },
{ "type": "Feature", "properties": { "Lat_DD": 37.98, "Lon_DD": -100.82, "ID": "A142979", "Name": "GARDEN CITY", "State": "Kansas", "elevation": 866, "status": "ACTIVE" }, "geometry": { "type": "Point", "coordinates": [ -100.82, 37.98 ] } },
{ "type": "Feature", "properties": { "Lat_DD": 38.55, "Lon_DD": -98.35, "ID": "A143037", "Name": "LORRAINE 2SW", "State": "Kansas", "elevation": 542, "status": "ACTIVE" }, "geometry": { "type": "Point", "coordinates": [ -98.35, 38.55 ] } },
{ "type": "Feature", "properties": { "Lat_DD": 39.27, "Lon_DD": -101.82, "ID": "A143155", "Name": "GOODLAND 8SW", "State": "Kansas", "elevation": 1156, "status": "ACTIVE" }, "geometry": { "type": "Point", "coordinates": [ -101.82, 39.27 ] } },
{ "type": "Feature", "properties": { "Lat_DD": 39.35, "Lon_DD": -100.62, "ID": "A143183", "Name": "HOXIE 9W", "State": "Kansas", "elevation": 883, "status": "ACTIVE" }, "geometry": { "type": "Point", "coordinates": [ -100.62, 39.35 ] } },
{ "type": "Feature", "properties": { "Lat_DD": 38.87, "Lon_DD": -99.33, "ID": "A143529", "Name": "HAYS", "State": "Kansas", "elevation": 610, "status": "ACTIVE" }, "geometry": { "type": "Point", "coordinates": [ -99.33, 38.87 ] } },
{ "type": "Feature", "properties": { "Lat_DD": 37.52, "Lon_DD": -97.32, "ID": "A143545", "Name": "HAYSVILLE", "State": "Kansas", "elevation": 378, "status": "ACTIVE" }, "geometry": { "type": "Point", "coordinates": [ -97.32, 37.52 ] } },
{ "type": "Feature", "properties": { "Lat_DD": 39.83, "Lon_DD": -95.48, "ID": "A143634", "Name": "HIAWATHA", "State": "Kansas", "elevation": 308, "status": "ACTIVE" }, "geometry": { "type": "Point", "coordinates": [ -95.48, 39.83 ] } },
{ "type": "Feature", "properties": { "Lat_DD": 39.37, "Lon_DD": -99.83, "ID": "A143665", "Name": "HILL CITY", "State": "Kansas", "elevation": 665, "status": "ACTIVE" }, "geometry": { "type": "Point", "coordinates": [ -99.83, 39.37 ] } },
{ "type": "Feature", "properties": { "Lat_DD": 37.92, "Lon_DD": -98.03, "ID": "A143939", "Name": "HUTCHINSON 10SW", "State": "Kansas", "elevation": 477, "status": "ACTIVE" }, "geometry": { "type": "Point", "coordinates": [ -98.03, 37.92 ] } },
{ "type": "Feature", "properties": { "Lat_DD": 38.1, "Lon_DD": -99.9, "ID": "A144081", "Name": "JETMORE 1NNW", "State": "Kansas", "elevation": 716, "status": "ACTIVE" }, "geometry": { "type": "Point", "coordinates": [ -99.9, 38.1 ] } },
{ "type": "Feature", "properties": { "Lat_DD": 39.68, "Lon_DD": -98.22, "ID": "A144089", "Name": "JEWELL", "State": "Kansas", "elevation": 540, "status": "ACTIVE" }, "geometry": { "type": "Point", "coordinates": [ -98.22, 39.68 ] } },
{ "type": "Feature", "properties": { "Lat_DD": 38.53, "Lon_DD": -99.28, "ID": "A144401", "Name": "LA CROSSE", "State": "Kansas", "elevation": 627, "status": "ACTIVE" }, "geometry": { "type": "Point", "coordinates": [ -99.28, 38.53 ] } },
{ "type": "Feature", "properties": { "Lat_DD": 37.88, "Lon_DD": -101.23, "ID": "A144464", "Name": "LAKIN", "State": "Kansas", "elevation": 912, "status": "ACTIVE" }, "geometry": { "type": "Point", "coordinates": [ -101.23, 37.88 ] } },
{ "type": "Feature", "properties": { "Lat_DD": 38.48, "Lon_DD": -101.33, "ID": "A144665", "Name": "LEOTI", "State": "Kansas", "elevation": 1002, "status": "ACTIVE" }, "geometry": { "type": "Point", "coordinates": [ -101.33, 38.48 ] } },
{ "type": "Feature", "properties": { "Lat_DD": 39.2, "Lon_DD": -96.58, "ID": "A144959", "Name": "MANHATTAN", "State": "Kansas", "elevation": 320, "status": "ACTIVE" }, "geometry": { "type": "Point", "coordinates": [ -96.58, 39.2 ] } },
{ "type": "Feature", "properties": { "Lat_DD": 37.13, "Lon_DD": -100.38, "ID": "A145171", "Name": "MEADE 11N", "State": "Kansas", "elevation": 718, "status": "ACTIVE" }, "geometry": { "type": "Point", "coordinates": [ -100.38, 37.13 ] } },
{ "type": "Feature", "properties": { "Lat_DD": 38.38, "Lon_DD": -99.85, "ID": "A145692", "Name": "NESS CITY 5SE", "State": "Kansas", "elevation": 677, "status": "ACTIVE" }, "geometry": { "type": "Point", "coordinates": [ -99.85, 38.38 ] } },
{ "type": "Feature", "properties": { "Lat_DD": 38.87, "Lon_DD": -94.98, "ID": "A145972", "Name": "OLATHE", "State": "Kansas", "elevation": 285, "status": "ACTIVE" }, "geometry": { "type": "Point", "coordinates": [ -94.98, 38.87 ] } },
{ "type": "Feature", "properties": { "Lat_DD": 39.45, "Lon_DD": -98.7, "ID": "A146088", "Name": "OSBORNE", "State": "Kansas", "elevation": 490, "status": "ACTIVE" }, "geometry": { "type": "Point", "coordinates": [ -98.7, 39.45 ] } },
{ "type": "Feature", "properties": { "Lat_DD": 38.53, "Lon_DD": -95.25, "ID": "A146139", "Name": "OTTAWA 2SE", "State": "Kansas", "elevation": 277, "status": "ACTIVE" }, "geometry": { "type": "Point", "coordinates": [ -95.25, 38.53 ] } },
{ "type": "Feature", "properties": { "Lat_DD": 38.7, "Lon_DD": -95.52, "ID": "A146154", "Name": "OVERBROOK", "State": "Kansas", "elevation": 340, "status": "ACTIVE" }, "geometry": { "type": "Point", "coordinates": [ -95.52, 38.7 ] } },
{ "type": "Feature", "properties": { "Lat_DD": 38.58, "Lon_DD": -94.85, "ID": "A146209", "Name": "PAOLA 2NE", "State": "Kansas", "elevation": 291, "status": "ACTIVE" }, "geometry": { "type": "Point", "coordinates": [ -94.85, 38.58 ] } },
{ "type": "Feature", "properties": { "Lat_DD": 37.37, "Lon_DD": -95.28, "ID": "A146249", "Name": "PARSONS", "State": "Kansas", "elevation": 277, "status": "ACTIVE" }, "geometry": { "type": "Point", "coordinates": [ -95.28, 37.37 ] } },
{ "type": "Feature", "properties": { "Lat_DD": 37.25, "Lon_DD": -101.78, "ID": "A146808", "Name": "RICHFIELD 1SW", "State": "Kansas", "elevation": 1045, "status": "ACTIVE" }, "geometry": { "type": "Point", "coordinates": [ -101.78, 37.25 ] } },
{ "type": "Feature", "properties": { "Lat_DD": 39.1, "Lon_DD": -95.92, "ID": "A147019", "Name": "ROSSVILLE 2SE", "State": "Kansas", "elevation": 281, "status": "ACTIVE" }, "geometry": { "type": "Point", "coordinates": [ -95.92, 39.1 ] } },
{ "type": "Feature", "properties": { "Lat_DD": 37.37, "Lon_DD": -101.38, "ID": "A147058", "Name": "MOSCOW 10NW", "State": "Kansas", "elevation": 947, "status": "ACTIVE" }, "geometry": { "type": "Point", "coordinates": [ -101.38, 37.37 ] } },
{ "type": "Feature", "properties": { "Lat_DD": 39.62, "Lon_DD": -101.82, "ID": "A147095", "Name": "ST. FRANCIS 10S", "State": "Kansas", "elevation": 1116, "status": "ACTIVE" }, "geometry": { "type": "Point", "coordinates": [ -101.82, 39.62 ] } },
{ "type": "Feature", "properties": { "Lat_DD": 38.45, "Lon_DD": -101.78, "ID": "A147239", "Name": "TRIBUNE", "State": "Kansas", "elevation": 1101, "status": "ACTIVE" }, "geometry": { "type": "Point", "coordinates": [ -101.78, 38.45 ] } },
{ "type": "Feature", "properties": { "Lat_DD": 39.82, "Lon_DD": -97.83, "ID": "A147259", "Name": "SCANDIA", "State": "Kansas", "elevation": 451, "status": "ACTIVE" }, "geometry": { "type": "Point", "coordinates": [ -97.83, 39.82 ] } },
{ "type": "Feature", "properties": { "Lat_DD": 37.15, "Lon_DD": -96.23, "ID": "A147305", "Name": "SEDAN 4NW", "State": "Kansas", "elevation": 303, "status": "ACTIVE" }, "geometry": { "type": "Point", "coordinates": [ -96.23, 37.15 ] } },
{ "type": "Feature", "properties": { "Lat_DD": 38.82, "Lon_DD": -101.85, "ID": "A147397", "Name": "SHARON SPRINGS 8SW", "State": "Kansas", "elevation": 1130, "status": "ACTIVE" }, "geometry": { "type": "Point", "coordinates": [ -101.85, 38.82 ] } },
{ "type": "Feature", "properties": { "Lat_DD": 39.07, "Lon_DD": -95.77, "ID": "A147399", "Name": "SILVER LAKE 4E", "State": "Kansas", "elevation": 271, "status": "ACTIVE" }, "geometry": { "type": "Point", "coordinates": [ -95.77, 39.07 ] } },
{ "type": "Feature", "properties": { "Lat_DD": 38.5, "Lon_DD": -100.62, "ID": "A147539", "Name": "DIGHTON 8WNW", "State": "Kansas", "elevation": 849, "status": "ACTIVE" }, "geometry": { "type": "Point", "coordinates": [ -100.62, 38.5 ] } },
{ "type": "Feature", "properties": { "Lat_DD": 37.3, "Lon_DD": -100.88, "ID": "A147922", "Name": "SANTANA 11SE", "State": "Kansas", "elevation": 899, "status": "ACTIVE" }, "geometry": { "type": "Point", "coordinates": [ -100.88, 37.3 ] } },
{ "type": "Feature", "properties": { "Lat_DD": 37.65, "Lon_DD": -101.03, "ID": "A147929", "Name": "SUBLETTE 16NW", "State": "Kansas", "elevation": 888, "status": "ACTIVE" }, "geometry": { "type": "Point", "coordinates": [ -101.03, 37.65 ] } },
{ "type": "Feature", "properties": { "Lat_DD": 37.3, "Lon_DD": -98.78, "ID": "A147968", "Name": "LAKE CITY 2SE", "State": "Kansas", "elevation": 509, "status": "ACTIVE" }, "geometry": { "type": "Point", "coordinates": [ -98.78, 37.3 ] } },
{ "type": "Feature", "properties": { "Lat_DD": 37.98, "Lon_DD": -101.87, "ID": "A148038", "Name": "HAMILTON", "State": "Kansas", "elevation": 1000, "status": "ACTIVE" }, "geometry": { "type": "Point", "coordinates": [ -101.87, 37.98 ] } },
{ "type": "Feature", "properties": { "Lat_DD": 38.52, "Lon_DD": -101.67, "ID": "A148235", "Name": "TRIBUNE 6NE", "State": "Kansas", "elevation": 335, "status": "ACTIVE" }, "geometry": { "type": "Point", "coordinates": [ -101.67, 38.52 ] } },
{ "type": "Feature", "properties": { "Lat_DD": 39.22, "Lon_DD": -96.58, "ID": "A148259", "Name": "ROCKY FORD", "State": "Kansas", "elevation": 320, "status": "ACTIVE" }, "geometry": { "type": "Point", "coordinates": [ -96.58, 39.22 ] } },
{ "type": "Feature", "properties": { "Lat_DD": 37.67, "Lon_DD": -101.37, "ID": "A148287", "Name": "GRANT", "State": "Kansas", "elevation": 934, "status": "ACTIVE" }, "geometry": { "type": "Point", "coordinates": [ -101.37, 37.67 ] } },
{ "type": "Feature", "properties": { "Lat_DD": 39.77, "Lon_DD": -97.05, "ID": "A148578", "Name": "WASHINGTON", "State": "Kansas", "elevation": 417, "status": "ACTIVE" }, "geometry": { "type": "Point", "coordinates": [ -97.05, 39.77 ] } },
{ "type": "Feature", "properties": { "Lat_DD": 38.87, "Lon_DD": -96.9, "ID": "A149029", "Name": "ROCK SPRINGS", "State": "Kansas", "elevation": 374, "status": "ACTIVE" }, "geometry": { "type": "Point", "coordinates": [ -96.9, 38.87 ] } },
{ "type": "Feature", "properties": { "Lat_DD": 37.85, "Lon_DD": -95.78, "ID": "A149080", "Name": "YATES CENTER", "State": "Kansas", "elevation": 338, "status": "ACTIVE" }, "geometry": { "type": "Point", "coordinates": [ -95.78, 37.85 ] } },
{ "type": "Feature", "properties": { "Lat_DD": 48.48, "Lon_DD": -98.07, "ID": "A320023", "Name": "ADAMS", "State": "North Dakota", "elevation": 1580, "status": "ACTIVE" }, "geometry": { "type": "Point", "coordinates": [ -98.07, 48.48 ] } },
{ "type": "Feature", "properties": { "Lat_DD": 46.48, "Lon_DD": -103.3, "ID": "A320199", "Name": "AMIDON 1N", "State": "North Dakota", "elevation": 2882, "status": "ACTIVE" }, "geometry": { "type": "Point", "coordinates": [ -103.3, 46.48 ] } },
{ "type": "Feature", "properties": { "Lat_DD": 47.93, "Lon_DD": -103.45, "ID": "A320370", "Name": "ARNEGARD 9N", "State": "North Dakota", "elevation": 2254, "status": "ACTIVE" }, "geometry": { "type": "Point", "coordinates": [ -103.45, 47.93 ] } },
{ "type": "Feature", "properties": { "Lat_DD": 48.17, "Lon_DD": -99.65, "ID": "A320509", "Name": "BAKER", "State": "North Dakota", "elevation": 515, "status": "ACTIVE" }, "geometry": { "type": "Point", "coordinates": [ -99.65, 48.17 ] } },
{ "type": "Feature", "properties": { "Lat_DD": 46.78, "Lon_DD": -103.97, "ID": "A320599", "Name": "BEACH", "State": "North Dakota", "elevation": 884, "status": "ACTIVE" }, "geometry": { "type": "Point", "coordinates": [ -103.97, 46.78 ] } },
{ "type": "Feature", "properties": { "Lat_DD": 48.38, "Lon_DD": -101.82, "ID": "A320729", "Name": "BERTHOLD", "State": "North Dakota", "elevation": 660, "status": "ACTIVE" }, "geometry": { "type": "Point", "coordinates": [ -101.82, 48.38 ] } },
{ "type": "Feature", "properties": { "Lat_DD": 48.82, "Lon_DD": -100.77, "ID": "A320949", "Name": "BOTTINEAU", "State": "North Dakota", "elevation": 452, "status": "ACTIVE" }, "geometry": { "type": "Point", "coordinates": [ -100.77, 48.82 ] } },
{ "type": "Feature", "properties": { "Lat_DD": 48.82, "Lon_DD": -102.23, "ID": "A320989", "Name": "BOWBELLS", "State": "North Dakota", "elevation": 597, "status": "ACTIVE" }, "geometry": { "type": "Point", "coordinates": [ -102.23, 48.82 ] } },
{ "type": "Feature", "properties": { "Lat_DD": 46.2, "Lon_DD": -103.47, "ID": "A320999", "Name": "BOWMAN", "State": "North Dakota", "elevation": 913, "status": "ACTIVE" }, "geometry": { "type": "Point", "coordinates": [ -103.47, 46.2 ] } },
{ "type": "Feature", "properties": { "Lat_DD": 48.47, "Lon_DD": -99.17, "ID": "A321289", "Name": "CANDO", "State": "North Dakota", "elevation": 454, "status": "ACTIVE" }, "geometry": { "type": "Point", "coordinates": [ -99.17, 48.47 ] } },
{ "type": "Feature", "properties": { "Lat_DD": 46.43, "Lon_DD": -101.35, "ID": "A321365", "Name": "CARSON 9ENE", "State": "North Dakota", "elevation": 641, "status": "ACTIVE" }, "geometry": { "type": "Point", "coordinates": [ -101.35, 46.43 ] } },
{ "type": "Feature", "properties": { "Lat_DD": 47.5, "Lon_DD": -99.13, "ID": "A321369", "Name": "CARRINGTON", "State": "North Dakota", "elevation": 477, "status": "ACTIVE" }, "geometry": { "type": "Point", "coordinates": [ -99.13, 47.5 ] } },
{ "type": "Feature", "properties": { "Lat_DD": 48.83, "Lon_DD": -97.63, "ID": "A321439", "Name": "CAVALIER", "State": "North Dakota", "elevation": 267, "status": "ACTIVE" }, "geometry": { "type": "Point", "coordinates": [ -97.63, 48.83 ] } },
{ "type": "Feature", "properties": { "Lat_DD": 47.92, "Lon_DD": -103.78, "ID": "A321439", "Name": "CHARBONNEAU", "State": "North Dakota", "elevation": 2281, "status": "ACTIVE" }, "geometry": { "type": "Point", "coordinates": [ -103.78, 47.92 ] } },
{ "type": "Feature", "properties": { "Lat_DD": 47.37, "Lon_DD": -97.63, "ID": "A321686", "Name": "HOPE 2NE", "State": "North Dakota", "elevation": 344, "status": "ACTIVE" }, "geometry": { "type": "Point", "coordinates": [ -97.63, 47.37 ] } },
{ "type": "Feature", "properties": { "Lat_DD": 47.43, "Lon_DD": -98.18, "ID": "A321766", "Name": "COOPERSTOWN 2N", "State": "North Dakota", "elevation": 433, "status": "ACTIVE" }, "geometry": { "type": "Point", "coordinates": [ -98.18, 47.43 ] } },
{ "type": "Feature", "properties": { "Lat_DD": 47.22, "Lon_DD": -98.67, "ID": "A321815", "Name": "COURTENAY 5W", "State": "North Dakota", "elevation": 1550, "status": "ACTIVE" }, "geometry": { "type": "Point", "coordinates": [ -98.67, 47.22 ] } },
{ "type": "Feature", "properties": { "Lat_DD": 48.05, "Lon_DD": -98.6, "ID": "A321819", "Name": "CRARY", "State": "North Dakota", "elevation": 457, "status": "ACTIVE" }, "geometry": { "type": "Point", "coordinates": [ -98.6, 48.05 ] } },
{ "type": "Feature", "properties": { "Lat_DD": 48.8, "Lon_DD": -103.32, "ID": "A321829", "Name": "CROSBY", "State": "North Dakota", "elevation": 636, "status": "ACTIVE" }, "geometry": { "type": "Point", "coordinates": [ -103.32, 48.8 ] } },
{ "type": "Feature", "properties": { "Lat_DD": 48.6, "Lon_DD": -97.75, "ID": "A321850", "Name": "CRYSTAL 4NW", "State": "North Dakota", "elevation": 943, "status": "ACTIVE" }, "geometry": { "type": "Point", "coordinates": [ -97.75, 48.6 ] } },
{ "type": "Feature", "properties": { "Lat_DD": 48.05, "Lon_DD": -102.35, "ID": "A321860", "Name": "CRANE CREEK 1E", "State": "North Dakota", "elevation": 2203, "status": "ACTIVE" }, "geometry": { "type": "Point", "coordinates": [ -102.35, 48.05 ] } },
{ "type": "Feature", "properties": { "Lat_DD": 47.79, "Lon_DD": -102.87, "ID": "A321865", "Name": "CROFF 3E", "State": "North Dakota", "elevation": 2240, "status": "ACTIVE" }, "geometry": { "type": "Point", "coordinates": [ -102.87, 47.79 ] } },
{ "type": "Feature", "properties": { "Lat_DD": 47.18, "Lon_DD": -98.13, "ID": "A321999", "Name": "DAZEY", "State": "North Dakota", "elevation": 439, "status": "ACTIVE" }, "geometry": { "type": "Point", "coordinates": [ -98.13, 47.18 ] } },
{ "type": "Feature", "properties": { "Lat_DD": 47.48, "Lon_DD": -100.23, "ID": "A322020", "Name": "DENHOFF 1NE", "State": "North Dakota", "elevation": 2070, "status": "ACTIVE" }, "geometry": { "type": "Point", "coordinates": [ -100.23, 47.48 ] } },
{ "type": "Feature", "properties": { "Lat_DD": 46.88, "Lon_DD": -102.82, "ID": "A322189", "Name": "DICKINSON", "State": "North Dakota", "elevation": 760, "status": "ACTIVE" }, "geometry": { "type": "Point", "coordinates": [ -102.82, 46.88 ] } },
{ "type": "Feature", "properties": { "Lat_DD": 47.33, "Lon_DD": -102.63, "ID": "A322199", "Name": "DUNN", "State": "North Dakota", "elevation": 675, "status": "ACTIVE" }, "geometry": { "type": "Point", "coordinates": [ -102.63, 47.33 ] } },
{ "type": "Feature", "properties": { "Lat_DD": 46.32, "Lon_DD": -98.77, "ID": "A322489", "Name": "EDGELEY", "State": "North Dakota", "elevation": 503, "status": "ACTIVE" }, "geometry": { "type": "Point", "coordinates": [ -98.77, 46.32 ] } },
{ "type": "Feature", "properties": { "Lat_DD": 48.42, "Lon_DD": -98.52, "ID": "A322525", "Name": "EDMORE 3NW", "State": "North Dakota", "elevation": 463, "status": "ACTIVE" }, "geometry": { "type": "Point", "coordinates": [ -98.52, 48.42 ] } },
{ "type": "Feature", "properties": { "Lat_DD": 46.53, "Lon_DD": -97.13, "ID": "A322589", "Name": "EKRE", "State": "North Dakota", "elevation": 319, "status": "ACTIVE" }, "geometry": { "type": "Point", "coordinates": [ -97.13, 46.53 ] } },
{ "type": "Feature", "properties": { "Lat_DD": 48.25, "Lon_DD": -103.32, "ID": "A322700", "Name": "EPPING 2SE", "State": "North Dakota", "elevation": 2218, "status": "ACTIVE" }, "geometry": { "type": "Point", "coordinates": [ -103.32, 48.25 ] } },
{ "type": "Feature", "properties": { "Lat_DD": 46.88, "Lon_DD": -96.82, "ID": "A322858", "Name": "FARGO", "State": "North Dakota", "elevation": 273, "status": "ACTIVE" }, "geometry": { "type": "Point", "coordinates": [ -96.82, 46.88 ] } },
{ "type": "Feature", "properties": { "Lat_DD": 46.73, "Lon_DD": -97.92, "ID": "A322959", "Name": "FINGAL", "State": "North Dakota", "elevation": 455, "status": "ACTIVE" }, "geometry": { "type": "Point", "coordinates": [ -97.92, 46.73 ] } },
{ "type": "Feature", "properties": { "Lat_DD": 48.28, "Lon_DD": -97.6, "ID": "A323109", "Name": "FORESTRIVER", "State": "North Dakota", "elevation": 760, "status": "ACTIVE" }, "geometry": { "type": "Point", "coordinates": [ -97.6, 48.28 ] } },
{ "type": "Feature", "properties": { "Lat_DD": 45.98, "Lon_DD": -97.82, "ID": "A323117", "Name": "BRAMPTON 2WSW", "State": "North Dakota", "elevation": 404, "status": "ACTIVE" }, "geometry": { "type": "Point", "coordinates": [ -97.82, 45.98 ] } },
{ "type": "Feature", "properties": { "Lat_DD": 48.95, "Lon_DD": -103.8, "ID": "A323190", "Name": "FORTUNE 4N", "State": "North Dakota", "elevation": 2246, "status": "ACTIVE" }, "geometry": { "type": "Point", "coordinates": [ -103.8, 48.95 ] } },
{ "type": "Feature", "properties": { "Lat_DD": 46.08, "Lon_DD": -100.68, "ID": "A323206", "Name": "FORT YATES", "State": "North Dakota", "elevation": 507, "status": "ACTIVE" }, "geometry": { "type": "Point", "coordinates": [ -100.68, 46.08 ] } },
{ "type": "Feature", "properties": { "Lat_DD": 47.2, "Lon_DD": -97.43, "ID": "A323359", "Name": "GALESBURG", "State": "North Dakota", "elevation": 331, "status": "ACTIVE" }, "geometry": { "type": "Point", "coordinates": [ -97.43, 47.2 ] } },
{ "type": "Feature", "properties": { "Lat_DD": 47.7, "Lon_DD": -101.68, "ID": "A323369", "Name": "GARRISON 13W", "State": "North Dakota", "elevation": 671, "status": "ACTIVE" }, "geometry": { "type": "Point", "coordinates": [ -101.68, 47.7 ] } },
{ "type": "Feature", "properties": { "Lat_DD": 48.15, "Lon_DD": -100.98, "ID": "A323400", "Name": "GENOA 3S", "State": "North Dakota", "elevation": 1609, "status": "ACTIVE" }, "geometry": { "type": "Point", "coordinates": [ -100.98, 48.15 ] } },
{ "type": "Feature", "properties": { "Lat_DD": 48.4, "Lon_DD": -97.18, "ID": "A323609", "Name": "GRAFTON", "State": "North Dakota", "elevation": 247, "status": "ACTIVE" }, "geometry": { "type": "Point", "coordinates": [ -97.18, 48.4 ] } },
{ "type": "Feature", "properties": { "Lat_DD": 47.83, "Lon_DD": -97.07, "ID": "A323619", "Name": "GRANDFORKS", "State": "North Dakota", "elevation": 261, "status": "ACTIVE" }, "geometry": { "type": "Point", "coordinates": [ -97.07, 47.83 ] } },
{ "type": "Feature", "properties": { "Lat_DD": 48.73, "Lon_DD": -103.87, "ID": "A323750", "Name": "GRENORA 8N", "State": "North Dakota", "elevation": 2108, "status": "ACTIVE" }, "geometry": { "type": "Point", "coordinates": [ -103.87, 48.73 ] } },
{ "type": "Feature", "properties": { "Lat_DD": 47.72, "Lon_DD": -99.92, "ID": "A324009", "Name": "HARVEY", "State": "North Dakota", "elevation": 491, "status": "ACTIVE" }, "geometry": { "type": "Point", "coordinates": [ -99.92, 47.72 ] } },
{ "type": "Feature", "properties": { "Lat_DD": 47.3, "Lon_DD": -101.68, "ID": "A324019", "Name": "HAZEN", "State": "North Dakota", "elevation": 552, "status": "ACTIVE" }, "geometry": { "type": "Point", "coordinates": [ -101.68, 47.3 ] } },
{ "type": "Feature", "properties": { "Lat_DD": 48.02, "Lon_DD": -102.93, "ID": "A324070", "Name": "HAWKEYE 3NW", "State": "North Dakota", "elevation": 2323, "status": "ACTIVE" }, "geometry": { "type": "Point", "coordinates": [ -102.93, 48.02 ] } },
{ "type": "Feature", "properties": { "Lat_DD": 46.0, "Lon_DD": -102.65, "ID": "A324187", "Name": "HETTINGER", "State": "North Dakota", "elevation": 814, "status": "ACTIVE" }, "geometry": { "type": "Point", "coordinates": [ -102.65, 46.0 ] } },
{ "type": "Feature", "properties": { "Lat_DD": 47.35, "Lon_DD": -96.92, "ID": "A324209", "Name": "HILLSBORO", "State": "North Dakota", "elevation": 275, "status": "ACTIVE" }, "geometry": { "type": "Point", "coordinates": [ -96.92, 47.35 ] } },
{ "type": "Feature", "properties": { "Lat_DD": 48.15, "Lon_DD": -103.12, "ID": "A324219", "Name": "HOFFLUND", "State": "North Dakota", "elevation": 592, "status": "ACTIVE" }, "geometry": { "type": "Point", "coordinates": [ -103.12, 48.15 ] } },
{ "type": "Feature", "properties": { "Lat_DD": 48.15, "Lon_DD": -97.72, "ID": "A324319", "Name": "INKSTER", "State": "North Dakota", "elevation": 350, "status": "ACTIVE" }, "geometry": { "type": "Point", "coordinates": [ -97.72, 48.15 ] } },
{ "type": "Feature", "properties": { "Lat_DD": 48.12, "Lon_DD": -100.63, "ID": "A324419", "Name": "KARLSRUHE", "State": "North Dakota", "elevation": 472, "status": "ACTIVE" }, "geometry": { "type": "Point", "coordinates": [ -100.63, 48.12 ] } },
{ "type": "Feature", "properties": { "Lat_DD": 47.77, "Lon_DD": -97.48, "ID": "A324580", "Name": "KEMPTON 6SE", "State": "North Dakota", "elevation": 1100, "status": "ACTIVE" }, "geometry": { "type": "Point", "coordinates": [ -97.48, 47.77 ] } },
{ "type": "Feature", "properties": { "Lat_DD": 48.75, "Lon_DD": -98.35, "ID": "A324959", "Name": "LANGDON", "State": "North Dakota", "elevation": 495, "status": "ACTIVE" }, "geometry": { "type": "Point", "coordinates": [ -98.35, 48.75 ] } },
{ "type": "Feature", "properties": { "Lat_DD": 46.72, "Lon_DD": -97.23, "ID": "A324969", "Name": "LEONARD", "State": "North Dakota", "elevation": 290, "status": "ACTIVE" }, "geometry": { "type": "Point", "coordinates": [ -97.23, 46.72 ] } },
{ "type": "Feature", "properties": { "Lat_DD": 47.9, "Lon_DD": -102.22, "ID": "A325180", "Name": "LIBERTY 5E", "State": "North Dakota", "elevation": 2097, "status": "ACTIVE" }, "geometry": { "type": "Point", "coordinates": [ -102.22, 47.9 ] } },
{ "type": "Feature", "properties": { "Lat_DD": 46.9, "Lon_DD": -98.93, "ID": "A325219", "Name": "JAMESTOWN", "State": "North Dakota", "elevation": 495, "status": "ACTIVE" }, "geometry": { "type": "Point", "coordinates": [ -98.93, 46.9 ] } },
{ "type": "Feature", "properties": { "Lat_DD": 46.32, "Lon_DD": -100.28, "ID": "A325229", "Name": "LINTON", "State": "North Dakota", "elevation": 609, "status": "ACTIVE" }, "geometry": { "type": "Point", "coordinates": [ -100.28, 46.32 ] } },
{ "type": "Feature", "properties": { "Lat_DD": 46.43, "Lon_DD": -97.72, "ID": "A325239", "Name": "LISBON", "State": "North Dakota", "elevation": 370, "status": "ACTIVE" }, "geometry": { "type": "Point", "coordinates": [ -97.72, 46.43 ] } },
{ "type": "Feature", "properties": { "Lat_DD": 47.8, "Lon_DD": -97.77, "ID": "A325332", "Name": "LOGAN CENTER 2E", "State": "North Dakota", "elevation": 1357, "status": "ACTIVE" }, "geometry": { "type": "Point", "coordinates": [ -97.77, 47.8 ] } },
{ "type": "Feature", "properties": { "Lat_DD": 46.77, "Lon_DD": -100.92, "ID": "A325435", "Name": "MADDOCK 2N", "State": "North Dakota", "elevation": 1614, "status": "ACTIVE" }, "geometry": { "type": "Point", "coordinates": [ -100.92, 46.77 ] } },
{ "type": "Feature", "properties": { "Lat_DD": 46.77, "Lon_DD": -100.92, "ID": "A325479", "Name": "MANDAN", "State": "North Dakota", "elevation": 591, "status": "ACTIVE" }, "geometry": { "type": "Point", "coordinates": [ -100.92, 46.77 ] } },
{ "type": "Feature", "properties": { "Lat_DD": 46.55, "Lon_DD": -98.33, "ID": "A325489", "Name": "MARION", "State": "North Dakota", "elevation": 443, "status": "ACTIVE" }, "geometry": { "type": "Point", "coordinates": [ -98.33, 46.55 ] } },
{ "type": "Feature", "properties": { "Lat_DD": 47.5, "Lon_DD": -97.27, "ID": "A325679", "Name": "MAYVILLE", "State": "North Dakota", "elevation": 293, "status": "ACTIVE" }, "geometry": { "type": "Point", "coordinates": [ -97.27, 47.5 ] } },
{ "type": "Feature", "properties": { "Lat_DD": 47.68, "Lon_DD": -98.62, "ID": "A325749", "Name": "MCHENRY", "State": "North Dakota", "elevation": 511, "status": "ACTIVE" }, "geometry": { "type": "Point", "coordinates": [ -98.62, 47.68 ] } },
{ "type": "Feature", "properties": { "Lat_DD": 47.8, "Lon_DD": -98.32, "ID": "A325765", "Name": "PEKIN", "State": "North Dakota", "elevation": 456, "status": "ACTIVE" }, "geometry": { "type": "Point", "coordinates": [ -98.32, 47.8 ] } },
{ "type": "Feature", "properties": { "Lat_DD": 48.02, "Lon_DD": -98.17, "ID": "A325769", "Name": "MICHIGAN", "State": "North Dakota", "elevation": 464, "status": "ACTIVE" }, "geometry": { "type": "Point", "coordinates": [ -98.17, 48.02 ] } },
{ "type": "Feature", "properties": { "Lat_DD": 47.55, "Lon_DD": -102.98, "ID": "A325785", "Name": "MEDICINE HOLE 9NW", "State": "North Dakota", "elevation": 2555, "status": "ACTIVE" }, "geometry": { "type": "Point", "coordinates": [ -102.98, 47.55 ] } },
{ "type": "Feature", "properties": { "Lat_DD": 48.17, "Lon_DD": -101.3, "ID": "A325999", "Name": "MINOT", "State": "North Dakota", "elevation": 539, "status": "ACTIVE" }, "geometry": { "type": "Point", "coordinates": [ -101.3, 48.17 ] } },
{ "type": "Feature", "properties": { "Lat_DD": 48.75, "Lon_DD": -101.53, "ID": "A326029", "Name": "MOHALL", "State": "North Dakota", "elevation": 501, "status": "ACTIVE" }, "geometry": { "type": "Point", "coordinates": [ -101.53, 48.75 ] } },
{ "type": "Feature", "properties": { "Lat_DD": 46.37, "Lon_DD": -102.32, "ID": "A326039", "Name": "MOTT 1 N", "State": "North Dakota", "elevation": 754, "status": "ACTIVE" }, "geometry": { "type": "Point", "coordinates": [ -102.32, 46.37 ] } },
{ "type": "Feature", "properties": { "Lat_DD": 48.73, "Lon_DD": -103.0, "ID": "A326400", "Name": "NOONAN 9S", "State": "North Dakota", "elevation": 2371, "status": "ACTIVE" }, "geometry": { "type": "Point", "coordinates": [ -103.0, 48.73 ] } },
{ "type": "Feature", "properties": { "Lat_DD": 48.23, "Lon_DD": -99.32, "ID": "A326490", "Name": "NILES 3SE", "State": "North Dakota", "elevation": 1525, "status": "ACTIVE" }, "geometry": { "type": "Point", "coordinates": [ -99.32, 48.23 ] } },
{ "type": "Feature", "properties": { "Lat_DD": 46.07, "Lon_DD": -98.1, "ID": "A326629", "Name": "OAKES", "State": "North Dakota", "elevation": 396, "status": "ACTIVE" }, "geometry": { "type": "Point", "coordinates": [ -98.1, 46.07 ] } },
{ "type": "Feature", "properties": { "Lat_DD": 47.22, "Lon_DD": -97.78, "ID": "A327049", "Name": "PILLSBURY", "State": "North Dakota", "elevation": 392, "status": "ACTIVE" }, "geometry": { "type": "Point", "coordinates": [ -97.78, 47.22 ] } },
{ "type": "Feature", "properties": { "Lat_DD": 47.85, "Lon_DD": -101.95, "ID": "A327059", "Name": "PLAZA", "State": "North Dakota", "elevation": 645, "status": "ACTIVE" }, "geometry": { "type": "Point", "coordinates": [ -101.95, 47.85 ] } },
{ "type": "Feature", "properties": { "Lat_DD": 48.83, "Lon_DD": -99.62, "ID": "A327249", "Name": "ROLLA", "State": "North Dakota", "elevation": 552, "status": "ACTIVE" }, "geometry": { "type": "Point", "coordinates": [ -99.62, 48.83 ] } },
{ "type": "Feature", "properties": { "Lat_DD": 48.27, "Lon_DD": -102.48, "ID": "A327259", "Name": "ROSS", "State": "North Dakota", "elevation": 726, "status": "ACTIVE" }, "geometry": { "type": "Point", "coordinates": [ -102.48, 48.27 ] } },
{ "type": "Feature", "properties": { "Lat_DD": 48.35, "Lon_DD": -100.07, "ID": "A327269", "Name": "RUGBY", "State": "North Dakota", "elevation": 455, "status": "ACTIVE" }, "geometry": { "type": "Point", "coordinates": [ -100.07, 48.35 ] } },
{ "type": "Feature", "properties": { "Lat_DD": 47.0, "Lon_DD": -97.12, "ID": "A327359", "Name": "PROSPER", "State": "North Dakota", "elevation": 283, "status": "ACTIVE" }, "geometry": { "type": "Point", "coordinates": [ -97.12, 47.0 ] } },
{ "type": "Feature", "properties": { "Lat_DD": 48.4, "Lon_DD": -103.17, "ID": "A327380", "Name": "RAT 4N", "State": "North Dakota", "elevation": 2316, "status": "ACTIVE" }, "geometry": { "type": "Point", "coordinates": [ -103.17, 48.4 ] } },
{ "type": "Feature", "properties": { "Lat_DD": 48.18, "Lon_DD": -102.68, "ID": "A327400", "Name": "RAT LAKE 4NW", "State": "North Dakota", "elevation": 2304, "status": "ACTIVE" }, "geometry": { "type": "Point", "coordinates": [ -102.68, 48.18 ] } },
{ "type": "Feature", "properties": { "Lat_DD": 47.17, "Lon_DD": -99.8, "ID": "A327589", "Name": "ROBINSON", "State": "North Dakota", "elevation": 549, "status": "ACTIVE" }, "geometry": { "type": "Point", "coordinates": [ -99.8, 47.17 ] } },
{ "type": "Feature", "properties": { "Lat_DD": 47.97, "Lon_DD": -101.08, "ID": "A327800", "Name": "SAWYER 7S", "State": "North Dakota", "elevation": 1875, "status": "ACTIVE" }, "geometry": { "type": "Point", "coordinates": [ -101.08, 47.97 ] } },
{ "type": "Feature", "properties": { "Lat_DD": 47.52, "Lon_DD": -97.85, "ID": "A327986", "Name": "FINLEY", "State": "North Dakota", "elevation": 450, "status": "ACTIVE" }, "geometry": { "type": "Point", "coordinates": [ -97.85, 47.52 ] } },
{ "type": "Feature", "properties": { "Lat_DD": 46.88, "Lon_DD": -99.98, "ID": "A328268", "Name": "STEELE 5NW", "State": "North Dakota", "elevation": 1862, "status": "ACTIVE" }, "geometry": { "type": "Point", "coordinates": [ -99.98, 46.88 ] } },
{ "type": "Feature", "properties": { "Lat_DD": 48.6, "Lon_DD": -97.5, "ID": "A328269", "Name": "ST. THOMAS", "State": "North Dakota", "elevation": 262, "status": "ACTIVE" }, "geometry": { "type": "Point", "coordinates": [ -97.5, 48.6 ] } },
{ "type": "Feature", "properties": { "Lat_DD": 46.7, "Lon_DD": -99.45, "ID": "A328367", "Name": "STREETER", "State": "North Dakota", "elevation": 549, "status": "ACTIVE" }, "geometry": { "type": "Point", "coordinates": [ -99.45, 46.7 ] } },
{ "type": "Feature", "properties": { "Lat_DD": 46.87, "Lon_DD": -99.58, "ID": "A328399", "Name": "TAPPEN", "State": "North Dakota", "elevation": 553, "status": "ACTIVE" }, "geometry": { "type": "Point", "coordinates": [ -99.58, 46.87 ] } },
{ "type": "Feature", "properties": { "Lat_DD": 47.57, "Lon_DD": -100.92, "ID": "A328849", "Name": "TURTLELAKE", "State": "North Dakota", "elevation": 582, "status": "ACTIVE" }, "geometry": { "type": "Point", "coordinates": [ -100.92, 47.57 ] } },
{ "type": "Feature", "properties": { "Lat_DD": 46.35, "Lon_DD": -96.67, "ID": "A329109", "Name": "WAHPETON", "State": "North Dakota", "elevation": 295, "status": "ACTIVE" }, "geometry": { "type": "Point", "coordinates": [ -96.67, 46.35 ] } },
{ "type": "Feature", "properties": { "Lat_DD": 47.8, "Lon_DD": -103.23, "ID": "A329249", "Name": "WATFORDCITY", "State": "North Dakota", "elevation": 676, "status": "ACTIVE" }, "geometry": { "type": "Point", "coordinates": [ -103.23, 47.8 ] } },
{ "type": "Feature", "properties": { "Lat_DD": 48.3, "Lon_DD": -98.87, "ID": "A329300", "Name": "WEBSTER 3N", "State": "North Dakota", "elevation": 1473, "status": "ACTIVE" }, "geometry": { "type": "Point", "coordinates": [ -98.87, 48.3 ] } },
{ "type": "Feature", "properties": { "Lat_DD": 47.43, "Lon_DD": -102.5, "ID": "A329340", "Name": "WERNER 6N", "State": "North Dakota", "elevation": 2276, "status": "ACTIVE" }, "geometry": { "type": "Point", "coordinates": [ -102.5, 47.43 ] } },
{ "type": "Feature", "properties": { "Lat_DD": 48.12, "Lon_DD": -103.73, "ID": "A329439", "Name": "WILLISTON", "State": "North Dakota", "elevation": 640, "status": "ACTIVE" }, "geometry": { "type": "Point", "coordinates": [ -103.73, 48.12 ] } },
{ "type": "Feature", "properties": { "Lat_DD": 46.25, "Lon_DD": -99.67, "ID": "A329519", "Name": "WISHEK", "State": "North Dakota", "elevation": 671, "status": "ACTIVE" }, "geometry": { "type": "Point", "coordinates": [ -99.67, 46.25 ] } },
{ "type": "Feature", "properties": { "Lat_DD": 48.53, "Lon_DD": -103.47, "ID": "A329639", "Name": "ALAMO 2S", "State": "North Dakota", "elevation": 657, "status": "ACTIVE" }, "geometry": { "type": "Point", "coordinates": [ -103.47, 48.53 ] } },
{ "type": "Feature", "properties": { "Lat_DD": 46.0, "Lon_DD": -99.68, "ID": "A329639", "Name": "ZEELAND 7NE", "State": "North Dakota", "elevation": 2070, "status": "ACTIVE" }, "geometry": { "type": "Point", "coordinates": [ -99.68, 46.0 ] } },
{ "type": "Feature", "properties": { "Lat_DD": 46.22, "Lon_DD": -96.9, "ID": "A329709", "Name": "MOORETON", "State": "North Dakota", "elevation": 322, "status": "ACTIVE" }, "geometry": { "type": "Point", "coordinates": [ -96.9, 46.22 ] } },
{ "type": "Feature", "properties": { "Lat_DD": 41.03, "Lon_DD": -107.6, "ID": "A482484", "Name": "BAGGS 2E", "State": "Wyoming", "elevation": 1091, "status": "ACTIVE" }, "geometry": { "type": "Point", "coordinates": [ -107.6, 41.03 ] } },
{ "type": "Feature", "properties": { "Lat_DD": 42.72, "Lon_DD": -109.7, "ID": "A480939", "Name": "BOULDER 2SE", "State": "Wyoming", "elevation": 2146, "status": "ACTIVE" }, "geometry": { "type": "Point", "coordinates": [ -109.7, 42.72 ] } },
{ "type": "Feature", "properties": { "Lat_DD": 41.32, "Lon_DD": -110.32, "ID": "A481029", "Name": "LYMAN 1SW", "State": "Wyoming", "elevation": 2057, "status": "ACTIVE" }, "geometry": { "type": "Point", "coordinates": [ -110.32, 41.32 ] } },
{ "type": "Feature", "properties": { "Lat_DD": 42.55, "Lon_DD": -110.33, "ID": "A481137", "Name": "BIG PINEY 11W", "State": "Wyoming", "elevation": 2251, "status": "ACTIVE" }, "geometry": { "type": "Point", "coordinates": [ -110.33, 42.55 ] } },
{ "type": "Feature", "properties": { "Lat_DD": 44.45, "Lon_DD": -108.38, "ID": "A481240", "Name": "BURLINGTON 2NE", "State": "Wyoming", "elevation": 1331, "status": "ACTIVE" }, "geometry": { "type": "Point", "coordinates": [ -108.38, 44.45 ] } },
{ "type": "Feature", "properties": { "Lat_DD": 42.8, "Lon_DD": -105.45, "ID": "A482689", "Name": "DOUGLAS 4NW", "State": "Wyoming", "elevation": 1491, "status": "ACTIVE" }, "geometry": { "type": "Point", "coordinates": [ -105.45, 42.8 ] } },
{ "type": "Feature", "properties": { "Lat_DD": 41.65, "Lon_DD": -110.38, "ID": "A481736", "Name": "GRANGER 6NW", "State": "Wyoming", "elevation": 1893, "status": "ACTIVE" }, "geometry": { "type": "Point", "coordinates": [ -110.38, 41.65 ] } },
{ "type": "Feature", "properties": { "Lat_DD": 44.55, "Lon_DD": -106.55, "ID": "A481816", "Name": "UCROSS 1W", "State": "Wyoming", "elevation": 1242, "status": "ACTIVE" }, "geometry": { "type": "Point", "coordinates": [ -106.55, 44.55 ] } },
{ "type": "Feature", "properties": { "Lat_DD": 42.93, "Lon_DD": -110.23, "ID": "A482235", "Name": "DANIEL 10NW", "State": "Wyoming", "elevation": 2237, "status": "ACTIVE" }, "geometry": { "type": "Point", "coordinates": [ -110.23, 42.93 ] } },
{ "type": "Feature", "properties": { "Lat_DD": 44.88, "Lon_DD": -107.2, "ID": "A482399", "Name": "RANCHESTER 2W", "State": "Wyoming", "elevation": 1156, "status": "ACTIVE" }, "geometry": { "type": "Point", "coordinates": [ -107.2, 44.88 ] } },
{ "type": "Feature", "properties": { "Lat_DD": 41.6, "Lon_DD": -106.45, "ID": "A482999", "Name": "ELK MOUNTAIN 6S", "State": "Wyoming", "elevation": 2375, "status": "ACTIVE" }, "geometry": { "type": "Point", "coordinates": [ -106.45, 41.6 ] } },
{ "type": "Feature", "properties": { "Lat_DD": 41.25, "Lon_DD": -106.72, "ID": "A483049", "Name": "ENCAMPMENT 5NE", "State": "Wyoming", "elevation": 2170, "status": "ACTIVE" }, "geometry": { "type": "Point", "coordinates": [ -106.72, 41.25 ] } },
{ "type": "Feature", "properties": { "Lat_DD": 42.03, "Lon_DD": -109.45, "ID": "A483189", "Name": "FARSON 5S", "State": "Wyoming", "elevation": 2010, "status": "ACTIVE" }, "geometry": { "type": "Point", "coordinates": [ -109.45, 42.03 ] } },
{ "type": "Feature", "properties": { "Lat_DD": 42.23, "Lon_DD": -110.18, "ID": "A485252", "Name": "LABARGE 2S", "State": "Wyoming", "elevation": 1940, "status": "ACTIVE" }, "geometry": { "type": "Point", "coordinates": [ -110.18, 42.23 ] } },
{ "type": "Feature", "properties": { "Lat_DD": 42.13, "Lon_DD": -104.38, "ID": "A485619", "Name": "LINGLE 2W", "State": "Wyoming", "elevation": 1276, "status": "ACTIVE" }, "geometry": { "type": "Point", "coordinates": [ -104.38, 42.13 ] } },
{ "type": "Feature", "properties": { "Lat_DD": 41.05, "Lon_DD": -110.12, "ID": "A485703", "Name": "LONETREE", "State": "Wyoming", "elevation": 2251, "status": "ACTIVE" }, "geometry": { "type": "Point", "coordinates": [ -110.12, 41.05 ] } },
{ "type": "Feature", "properties": { "Lat_DD": 42.42, "Lon_DD": -106.92, "ID": "A487109", "Name": "ALCOVA 14W", "State": "Wyoming", "elevation": 1804, "status": "ACTIVE" }, "geometry": { "type": "Point", "coordinates": [ -106.92, 42.42 ] } },
{ "type": "Feature", "properties": { "Lat_DD": 43.27, "Lon_DD": -108.67, "ID": "A487115", "Name": "PAVILLION 2N", "State": "Wyoming", "elevation": 1649, "status": "ACTIVE" }, "geometry": { "type": "Point", "coordinates": [ -108.67, 43.27 ] } },
{ "type": "Feature", "properties": { "Lat_DD": 42.73, "Lon_DD": -110.03, "ID": "A489169", "Name": "DANIEL 8S", "State": "Wyoming", "elevation": 2161, "status": "ACTIVE" }, "geometry": { "type": "Point", "coordinates": [ -110.03, 42.73 ] } },
{ "type": "Feature", "properties": { "Lat_DD": 47.32, "Lon_DD": -96.52, "ID": "A210019", "Name": "ADA", "State": "Minnesota", "elevation": 277, "status": "ACTIVE" }, "geometry": { "type": "Point", "coordinates": [ -96.52, 47.32 ] } },
{ "type": "Feature", "properties": { "Lat_DD": 45.38, "Lon_DD": -93.9, "ID": "A210570", "Name": "BECKER 1W", "State": "Minnesota", "elevation": 958, "status": "ACTIVE" }, "geometry": { "type": "Point", "coordinates": [ -93.9, 45.38 ] } },
{ "type": "Feature", "properties": { "Lat_DD": 46.05, "Lon_DD": -96.37, "ID": "A211245", "Name": "CAMPBELL", "State": "Minnesota", "elevation": 306, "status": "ACTIVE" }, "geometry": { "type": "Point", "coordinates": [ -96.37, 46.05 ] } },
{ "type": "Feature", "properties": { "Lat_DD": 48.85, "Lon_DD": -94.98, "ID": "A211251", "Name": "WILLIAMS 6N", "State": "Minnesota", "elevation": 333, "status": "ACTIVE" }, "geometry": { "type": "Point", "coordinates": [ -94.98, 48.85 ] } },
{ "type": "Feature", "properties": { "Lat_DD": 47.68, "Lon_DD": -96.82, "ID": "A211549", "Name": "ELDRED", "State": "Minnesota", "elevation": 262, "status": "ACTIVE" }, "geometry": { "type": "Point", "coordinates": [ -96.82, 47.68 ] } },
{ "type": "Feature", "properties": { "Lat_DD": 46.1, "Lon_DD": -94.92, "ID": "A211549", "Name": "CLARISSA 1SE", "State": "Minnesota", "elevation": 1333, "status": "ACTIVE" }, "geometry": { "type": "Point", "coordinates": [ -94.92, 46.1 ] } },
{ "type": "Feature", "properties": { "Lat_DD": 48.7, "Lon_DD": -96.33, "ID": "A213629", "Name": "GREENBUSH", "State": "Minnesota", "elevation": 305, "status": "ACTIVE" }, "geometry": { "type": "Point", "coordinates": [ -96.33, 48.7 ] } },
{ "type": "Feature", "properties": { "Lat_DD": 48.88, "Lon_DD": -97.15, "ID": "A213879", "Name": "HUMBOLDT", "State": "Minnesota", "elevation": 242, "status": "ACTIVE" }, "geometry": { "type": "Point", "coordinates": [ -97.15, 48.88 ] } },
{ "type": "Feature", "properties": { "Lat_DD": 46.82, "Lon_DD": -95.0, "ID": "A213950", "Name": "HUBBARD 1SE", "State": "Minnesota", "elevation": 1410, "status": "ACTIVE" }, "geometry": { "type": "Point", "coordinates": [ -95.0, 46.82 ] } },
{ "type": "Feature", "properties": { "Lat_DD": 48.63, "Lon_DD": -97.03, "ID": "A214249", "Name": "KENNEDY 6W", "State": "Minnesota", "elevation": 244, "status": "ACTIVE" }, "geometry": { "type": "Point", "coordinates": [ -97.03, 48.63 ] } },
{ "type": "Feature", "properties": { "Lat_DD": 45.92, "Lon_DD": -94.27, "ID": "A214790", "Name": "LITTLE FALLS 6SE", "State": "Minnesota", "elevation": 1109, "status": "ACTIVE" }, "geometry": { "type": "Point", "coordinates": [ -94.27, 45.92 ] } },
{ "type": "Feature", "properties": { "Lat_DD": 47.32, "Lon_DD": -96.13, "ID": "A215012", "Name": "WAUKON 3S", "State": "Minnesota", "elevation": 359, "status": "ACTIVE" }, "geometry": { "type": "Point", "coordinates": [ -96.13, 47.32 ] } },
{ "type": "Feature", "properties": { "Lat_DD": 46.42, "Lon_DD": -95.58, "ID": "A216280", "Name": "OTTERTAIL 1W", "State": "Minnesota", "elevation": 1357, "status": "ACTIVE" }, "geometry": { "type": "Point", "coordinates": [ -95.58, 46.42 ] } },
{ "type": "Feature", "properties": { "Lat_DD": 46.17, "Lon_DD": -95.37, "ID": "A216300", "Name": "PARKERS PRAIRIE 2NW", "State": "Minnesota", "elevation": 1470, "status": "ACTIVE" }, "geometry": { "type": "Point", "coordinates": [ -95.37, 46.17 ] } },
{ "type": "Feature", "properties": { "Lat_DD": 47.17, "Lon_DD": -96.68, "ID": "A216419", "Name": "PERLEY", "State": "Minnesota", "elevation": 273, "status": "ACTIVE" }, "geometry": { "type": "Point", "coordinates": [ -96.68, 47.17 ] } },
{ "type": "Feature", "properties": { "Lat_DD": 48.12, "Lon_DD": -95.97, "ID": "A216429", "Name": "MAVIE", "State": "Minnesota", "elevation": 356, "status": "ACTIVE" }, "geometry": { "type": "Point", "coordinates": [ -95.97, 48.12 ] } },
{ "type": "Feature", "properties": { "Lat_DD": 46.6, "Lon_DD": -95.62, "ID": "A216500", "Name": "PERHAM 2N", "State": "Minnesota", "elevation": 1361, "status": "ACTIVE" }, "geometry": { "type": "Point", "coordinates": [ -95.62, 46.6 ] } },
{ "type": "Feature", "properties": { "Lat_DD": 47.0, "Lon_DD": -95.38, "ID": "A216540", "Name": "PINE POINT 2N", "State": "Minnesota", "elevation": 1564, "status": "ACTIVE" }, "geometry": { "type": "Point", "coordinates": [ -95.38, 47.0 ] } },
{ "type": "Feature", "properties": { "Lat_DD": 45.78, "Lon_DD": -94.27, "ID": "A216915", "Name": "RICE 4NW", "State": "Minnesota", "elevation": 1079, "status": "ACTIVE" }, "geometry": { "type": "Point", "coordinates": [ -94.27, 45.78 ] } },
{ "type": "Feature", "properties": { "Lat_DD": 48.87, "Lon_DD": -95.85, "ID": "A217087", "Name": "FOX 4NE", "State": "Minnesota", "elevation": 317, "status": "ACTIVE" }, "geometry": { "type": "Point", "coordinates": [ -95.85, 48.87 ] } },
{ "type": "Feature", "properties": { "Lat_DD": 48.68, "Lon_DD": -95.73, "ID": "A217089", "Name": "ROSEAU", "State": "Minnesota", "elevation": 338, "status": "ACTIVE" }, "geometry": { "type": "Point", "coordinates": [ -95.73, 48.68 ] } },
{ "type": "Feature", "properties": { "Lat_DD": 46.78, "Lon_DD": -96.62, "ID": "A217409", "Name": "SABIN", "State": "Minnesota", "elevation": 301, "status": "ACTIVE" }, "geometry": { "type": "Point", "coordinates": [ -96.62, 46.78 ] } },
{ "type": "Feature", "properties": { "Lat_DD": 48.45, "Lon_DD": -96.85, "ID": "A218019", "Name": "STEPHEN", "State": "Minnesota", "elevation": 262, "status": "ACTIVE" }, "geometry": { "type": "Point", "coordinates": [ -96.85, 48.45 ] } },
{ "type": "Feature", "properties": { "Lat_DD": 46.38, "Lon_DD": -94.82, "ID": "A218411", "Name": "STAPLES 2N", "State": "Minnesota", "elevation": 1269, "status": "ACTIVE" }, "geometry": { "type": "Point", "coordinates": [ -94.82, 46.38 ] } },
{ "type": "Feature", "properties": { "Lat_DD": 47.05, "Lon_DD": -96.12, "ID": "A218411", "Name": "ULEN 7ESE", "State": "Minnesota", "elevation": 377, "status": "ACTIVE" }, "geometry": { "type": "Point", "coordinates": [ -96.12, 47.05 ] } },
{ "type": "Feature", "properties": { "Lat_DD": 46.43, "Lon_DD": -95.22, "ID": "A218575", "Name": "WADENA 4W", "State": "Minnesota", "elevation": 1341, "status": "ACTIVE" }, "geometry": { "type": "Point", "coordinates": [ -95.22, 46.43 ] } },
{ "type": "Feature", "properties": { "Lat_DD": 48.13, "Lon_DD": -96.83, "ID": "A218649", "Name": "WARREN", "State": "Minnesota", "elevation": 256, "status": "ACTIVE" }, "geometry": { "type": "Point", "coordinates": [ -96.83, 48.13 ] } },
{ "type": "Feature", "properties": { "Lat_DD": 45.7, "Lon_DD": -95.18, "ID": "A218800", "Name": "WESTPORT", "State": "Minnesota", "elevation": 1361, "status": "ACTIVE" }, "geometry": { "type": "Point", "coordinates": [ -95.18, 45.7 ] } },
{ "type": "Feature", "properties": { "Lat_DD": 48.55, "Lon_DD": -104.35, "ID": "A242185", "Name": "DAGMAR 7WSW", "State": "Montana", "elevation": 643, "status": "ACTIVE" }, "geometry": { "type": "Point", "coordinates": [ -104.35, 48.55 ] } },
{ "type": "Feature", "properties": { "Lat_DD": 48.83, "Lon_DD": -104.4, "ID": "A242454", "Name": "DOOLEY 3S", "State": "Montana", "elevation": 783, "status": "ACTIVE" }, "geometry": { "type": "Point", "coordinates": [ -104.4, 48.83 ] } },
{ "type": "Feature", "properties": { "Lat_DD": 48.25, "Lon_DD": -104.5, "ID": "A243309", "Name": "FROID", "State": "Montana", "elevation": 657, "status": "ACTIVE" }, "geometry": { "type": "Point", "coordinates": [ -104.5, 48.25 ] } },
{ "type": "Feature", "properties": { "Lat_DD": 48.82, "Lon_DD": -104.85, "ID": "A246927", "Name": "REDSTONE 5E", "State": "Montana", "elevation": 735, "status": "ACTIVE" }, "geometry": { "type": "Point", "coordinates": [ -104.85, 48.82 ] } },
{ "type": "Feature", "properties": { "Lat_DD": 47.72, "Lon_DD": -104.17, "ID": "A247569", "Name": "SIDNEY", "State": "Montana", "elevation": 585, "status": "ACTIVE" }, "geometry": { "type": "Point", "coordinates": [ -104.17, 47.72 ] } },
{ "type": "Feature", "properties": { "Lat_DD": 47.77, "Lon_DD": -104.25, "ID": "A247579", "Name": "BRORSON", "State": "Montana", "elevation": 691, "status": "ACTIVE" }, "geometry": { "type": "Point", "coordinates": [ -104.25, 47.77 ] } },
{ "type": "Feature", "properties": { "Lat_DD": 42.03, "Lon_DD": -103.15, "ID": "A250138", "Name": "ANGORA 13N", "State": "Nebraska", "elevation": 1213, "status": "INACTIVE" }, "geometry": { "type": "Point", "coordinates": [ -103.15, 42.03 ] } },
{ "type": "Feature", "properties": { "Lat_DD": 42.18, "Lon_DD": -102.92, "ID": "A250148", "Name": "ALLIANCE 6NW", "State": "Nebraska", "elevation": 1213, "status": "INACTIVE" }, "geometry": { "type": "Point", "coordinates": [ -102.92, 42.18 ] } },
{ "type": "Feature", "properties": { "Lat_DD": 41.48, "Lon_DD": -102.13, "ID": "A250259", "Name": "ARTHUR 10SW", "State": "Nebraska", "elevation": 1097, "status": "INACTIVE" }, "geometry": { "type": "Point", "coordinates": [ -102.13, 41.48 ] } },
{ "type": "Feature", "properties": { "Lat_DD": 41.65, "Lon_DD": -101.52, "ID": "A250369", "Name": "ARTHUR 11NE", "State": "Nebraska", "elevation": 1097, "status": "INACTIVE" }, "geometry": { "type": "Point", "coordinates": [ -101.52, 41.65 ] } },
{ "type": "Feature", "properties": { "Lat_DD": 40.8, "Lon_DD": -97.23, "ID": "A250588", "Name": "GOEHNER 2S", "State": "Nebraska", "elevation": 470, "status": "INACTIVE" }, "geometry": { "type": "Point", "coordinates": [ -97.23, 40.8 ] } },
{ "type": "Feature", "properties": { "Lat_DD": 41.03, "Lon_DD": -101.92, "ID": "A251229", "Name": "BRULE 4SW", "State": "Nebraska", "elevation": 1029, "status": "INACTIVE" }, "geometry": { "type": "Point", "coordinates": [ -101.92, 41.03 ] } },
{ "type": "Feature", "properties": { "Lat_DD": 42.35, "Lon_DD": -97.93, "ID": "A251249", "Name": "BRUNSWICK 3NE", "State": "Nebraska", "elevation": 548, "status": "INACTIVE" }, "geometry": { "type": "Point", "coordinates": [ -97.93, 42.35 ] } },
{ "type": "Feature", "properties": { "Lat_DD": 41.17, "Lon_DD": -98.02, "ID": "A251569", "Name": "CENTRAL CITY 3N", "State": "Nebraska", "elevation": 517, "status": "INACTIVE" }, "geometry": { "type": "Point", "coordinates": [ -98.02, 41.17 ] } },
{ "type": "Feature", "properties": { "Lat_DD": 42.13, "Lon_DD": -98.73, "ID": "A251590", "Name": "CHAMBERS 4S", "State": "Nebraska", "elevation": 668, "status": "INACTIVE" }, "geometry": { "type": "Point", "coordinates": [ -98.73, 42.13 ] } },
{ "type": "Feature", "properties": { "Lat_DD": 40.95, "Lon_DD": -100.98, "ID": "A252319", "Name": "DICKENS 9N", "State": "Nebraska", "elevation": 961, "status": "INACTIVE" }, "geometry": { "type": "Point", "coordinates": [ -100.98, 40.95 ] } },
{ "type": "Feature", "properties": { "Lat_DD": 40.68, "Lon_DD": -98.85, "ID": "A253299", "Name": "GIBBON 4S", "State": "Nebraska", "elevation": 625, "status": "INACTIVE" }, "geometry": { "type": "Point", "coordinates": [ -98.85, 40.68 ] } },
{ "type": "Feature", "properties": { "Lat_DD": 40.83, "Lon_DD": -101.67, "ID": "A253399", "Name": "GRANT 3E", "State": "Nebraska", "elevation": 975, "status": "INACTIVE" }, "geometry": { "type": "Point", "coordinates": [ -101.67, 40.83 ] } },
{ "type": "Feature", "properties": { "Lat_DD": 40.3, "Lon_DD": -95.62, "ID": "A254119", "Name": "NEMAHA 4SE", "State": "Nebraska", "elevation": 333, "status": "INACTIVE" }, "geometry": { "type": "Point", "coordinates": [ -95.62, 40.3 ] } },
{ "type": "Feature", "properties": { "Lat_DD": 40.68, "Lon_DD": -100.88, "ID": "A254338", "Name": "KEARNEY 2W", "State": "Nebraska", "elevation": 664, "status": "INACTIVE" }, "geometry": { "type": "Point", "coordinates": [ -100.88, 40.68 ] } },
{ "type": "Feature", "properties": { "Lat_DD": 41.22, "Lon_DD": -101.63, "ID": "A254459", "Name": "KEYSTONE 3W ALPHA", "State": "Nebraska", "elevation": 1008, "status": "INACTIVE" }, "geometry": { "type": "Point", "coordinates": [ -101.63, 41.22 ] } },
{ "type": "Feature", "properties": { "Lat_DD": 40.77, "Lon_DD": -99.73, "ID": "A254669", "Name": "LEXINGTON 1S", "State": "Nebraska", "elevation": 728, "status": "INACTIVE" }, "geometry": { "type": "Point", "coordinates": [ -99.73, 40.77 ] } },
{ "type": "Feature", "properties": { "Lat_DD": 40.78, "Lon_DD": -96.58, "ID": "A254709", "Name": "WALTON 2SW", "State": "Nebraska", "elevation": 383, "status": "INACTIVE" }, "geometry": { "type": "Point", "coordinates": [ -96.58, 40.78 ] } },
{ "type": "Feature", "properties": { "Lat_DD": 40.77, "Lon_DD": -96.7, "ID": "A254719", "Name": "LINCOLN 3600 S 20TH", "State": "Nebraska", "elevation": 378, "status": "INACTIVE" }, "geometry": { "type": "Point", "coordinates": [ -96.7, 40.77 ] } },
{ "type": "Feature", "properties": { "Lat_DD": 40.78, "Lon_DD": -96.6, "ID": "A254729", "Name": "WALTON 2W", "State": "Nebraska", "elevation": 415, "status": "INACTIVE" }, "geometry": { "type": "Point", "coordinates": [ -96.6, 40.78 ] } },
{ "type": "Feature", "properties": { "Lat_DD": 40.87, "Lon_DD": -96.75, "ID": "A254739", "Name": "LINCOLN 5500 NW 20TH", "State": "Nebraska", "elevation": 383, "status": "INACTIVE" }, "geometry": { "type": "Point", "coordinates": [ -96.75, 40.87 ] } },
{ "type": "Feature", "properties": { "Lat_DD": 40.78, "Lon_DD": -96.65, "ID": "A254749", "Name": "LINCOLN 1400 S COTNER", "State": "Nebraska", "elevation": 378, "status": "INACTIVE" }, "geometry": { "type": "Point", "coordinates": [ -96.65, 40.78 ] } },
{ "type": "Feature", "properties": { "Lat_DD": 40.82, "Lon_DD": -96.7, "ID": "A254759", "Name": "LINCOLN 1000 N 6TH", "State": "Nebraska", "elevation": 351, "status": "INACTIVE" }, "geometry": { "type": "Point", "coordinates": [ -96.7, 40.82 ] } },
{ "type": "Feature", "properties": { "Lat_DD": 40.23, "Lon_DD": -100.57, "ID": "A255363", "Name": "MCCOOK 4NE", "State": "Nebraska", "elevation": 792, "status": "INACTIVE" }, "geometry": { "type": "Point", "coordinates": [ -100.57, 40.23 ] } },
{ "type": "Feature", "properties": { "Lat_DD": 41.17, "Lon_DD": -96.47, "ID": "A255368", "Name": "MEAD 4S", "State": "Nebraska", "elevation": 366, "status": "INACTIVE" }, "geometry": { "type": "Point", "coordinates": [ -96.47, 41.17 ] } },
{ "type": "Feature", "properties": { "Lat_DD": 40.53, "Lon_DD": -95.8, "ID": "A255819", "Name": "JULIAN 4E", "State": "Nebraska", "elevation": 329, "status": "INACTIVE" }, "geometry": { "type": "Point", "coordinates": [ -95.8, 40.53 ] } },
{ "type": "Feature", "properties": { "Lat_DD": 42.58, "Lon_DD": -99.38, "ID": "A255929", "Name": "NEWPORT 3W", "State": "Nebraska", "elevation": 699, "status": "INACTIVE" }, "geometry": { "type": "Point", "coordinates": [ -99.38, 42.58 ] } },
{ "type": "Feature", "properties": { "Lat_DD": 41.93, "Lon_DD": -103.7, "ID": "A256489", "Name": "SCOTTSBLUFF 5NW", "State": "Nebraska", "elevation": 1244, "status": "INACTIVE" }, "geometry": { "type": "Point", "coordinates": [ -103.7, 41.93 ] } },
{ "type": "Feature", "properties": { "Lat_DD": 40.02, "Lon_DD": -96.18, "ID": "A256569", "Name": "PAWNEE CITY 7S", "State": "Nebraska", "elevation": 610, "status": "INACTIVE" }, "geometry": { "type": "Point", "coordinates": [ -96.18, 40.02 ] } },
{ "type": "Feature", "properties": { "Lat_DD": 41.18, "Lon_DD": -97.32, "ID": "A257119", "Name": "RISING CITY 2W", "State": "Nebraska", "elevation": 375, "status": "INACTIVE" }, "geometry": { "type": "Point", "coordinates": [ -97.32, 41.18 ] } },
{ "type": "Feature", "properties": { "Lat_DD": 40.85, "Lon_DD": -96.47, "ID": "A257249", "Name": "EAGLE 3NW ALPHA", "State": "Nebraska", "elevation": 370, "status": "INACTIVE" }, "geometry": { "type": "Point", "coordinates": [ -96.47, 40.85 ] } },
{ "type": "Feature", "properties": { "Lat_DD": 41.6, "Lon_DD": -100.8, "ID": "A257519", "Name": "TRYON 9E ALPHA", "State": "Nebraska", "elevation": 975, "status": "INACTIVE" }, "geometry": { "type": "Point", "coordinates": [ -100.8, 41.6 ] } },
{ "type": "Feature", "properties": { "Lat_DD": 41.6, "Lon_DD": -100.8, "ID": "A257529", "Name": "TRYON 9E BETA", "State": "Nebraska", "elevation": 975, "status": "INACTIVE" }, "geometry": { "type": "Point", "coordinates": [ -100.8, 41.6 ] } },
{ "type": "Feature", "properties": { "Lat_DD": 41.53, "Lon_DD": -102.78, "ID": "A257849", "Name": "BROADWATER 6SE", "State": "Nebraska", "elevation": 1302, "status": "INACTIVE" }, "geometry": { "type": "Point", "coordinates": [ -102.78, 41.53 ] } },
{ "type": "Feature", "properties": { "Lat_DD": 41.58, "Lon_DD": -97.57, "ID": "A258449", "Name": "PLATTE CENTER 5NW", "State": "Nebraska", "elevation": 472, "status": "INACTIVE" }, "geometry": { "type": "Point", "coordinates": [ -97.57, 41.58 ] } },
{ "type": "Feature", "properties": { "Lat_DD": 42.45, "Lon_DD": -97.55, "ID": "A259301", "Name": "WAUSA 2SW", "State": "Nebraska", "elevation": 539, "status": "INACTIVE" }, "geometry": { "type": "Point", "coordinates": [ -97.55, 42.45 ] } },
{ "type": "Feature", "properties": { "Lat_DD": 40.83, "Lon_DD": -98.6, "ID": "A259409", "Name": "WOOD RIVER 2N", "State": "Nebraska", "elevation": 600, "status": "INACTIVE" }, "geometry": { "type": "Point", "coordinates": [ -98.6, 40.83 ] } },
{ "type": "Feature", "properties": { "Lat_DD": 42.02, "Lon_DD": -93.77, "ID": "A130209", "Name": "AMES AGRONOMY", "State": "Iowa", "elevation": 309, "status": "INACTIVE" }, "geometry": { "type": "Point", "coordinates": [ -93.77, 42.02 ] } },
{ "type": "Feature", "properties": { "Lat_DD": 42.18, "Lon_DD": -93.98, "ID": "A130219", "Name": "GILBERT", "State": "Iowa", "elevation": 306, "status": "INACTIVE" }, "geometry": { "type": "Point", "coordinates": [ -93.98, 42.18 ] } },
{ "type": "Feature", "properties": { "Lat_DD": 43.17, "Lon_DD": -91.87, "ID": "A131069", "Name": "CALMAR", "State": "Iowa", "elevation": 393, "status": "INACTIVE" }, "geometry": { "type": "Point", "coordinates": [ -91.87, 43.17 ] } },
{ "type": "Feature", "properties": { "Lat_DD": 42.05, "Lon_DD": -95.83, "ID": "A131299", "Name": "CASTANAEXPSTN", "State": "Iowa", "elevation": 417, "status": "INACTIVE" }, "geometry": { "type": "Point", "coordinates": [ -95.83, 42.05 ] } },
{ "type": "Feature", "properties": { "Lat_DD": 41.92, "Lon_DD": -91.62, "ID": "A131329", "Name": "CEDAR RAPIDS", "State": "Iowa", "elevation": 240, "status": "INACTIVE" }, "geometry": { "type": "Point", "coordinates": [ -91.62, 41.92 ] } },
{ "type": "Feature", "properties": { "Lat_DD": 40.97, "Lon_DD": -93.42, "ID": "A131559", "Name": "CHARITON", "State": "Iowa", "elevation": 329, "status": "INACTIVE" }, "geometry": { "type": "Point", "coordinates": [ -93.42, 40.97 ] } },
{ "type": "Feature", "properties": { "Lat_DD": 42.7, "Lon_DD": -94.42, "ID": "A133259", "Name": "GILMORE", "State": "Iowa", "elevation": 360, "status": "INACTIVE" }, "geometry": { "type": "Point", "coordinates": [ -94.42, 42.7 ] } },
{ "type": "Feature", "properties": { "Lat_DD": 42.9, "Lon_DD": -93.8, "ID": "A134309", "Name": "KANAWHA WEST", "State": "Iowa", "elevation": 371, "status": "INACTIVE" }, "geometry": { "type": "Point", "coordinates": [ -93.8, 42.9 ] } },
{ "type": "Feature", "properties": { "Lat_DD": 41.32, "Lon_DD": -95.17, "ID": "A134759", "Name": "LEWIS", "State": "Iowa", "elevation": 392, "status": "INACTIVE" }, "geometry": { "type": "Point", "coordinates": [ -95.17, 41.32 ] } },
{ "type": "Feature", "properties": { "Lat_DD": 41.37, "Lon_DD": -91.1, "ID": "A135849", "Name": "MUSCATINE", "State": "Iowa", "elevation": 167, "status": "INACTIVE" }, "geometry": { "type": "Point", "coordinates": [ -91.1, 41.37 ] } },
{ "type": "Feature", "properties": { "Lat_DD": 42.93, "Lon_DD": -92.57, "ID": "A135879", "Name": "NASHUA", "State": "Iowa", "elevation": 347, "status": "INACTIVE" }, "geometry": { "type": "Point", "coordinates": [ -92.57, 42.93 ] } },
{ "type": "Feature", "properties": { "Lat_DD": 41.88, "Lon_DD": -93.22, "ID": "A136949", "Name": "RHODES", "State": "Iowa", "elevation": 308, "status": "INACTIVE" }, "geometry": { "type": "Point", "coordinates": [ -93.22, 41.88 ] } },
{ "type": "Feature", "properties": { "Lat_DD": 42.97, "Lon_DD": -95.55, "ID": "A138019", "Name": "SUTHERLAND", "State": "Iowa", "elevation": 439, "status": "INACTIVE" }, "geometry": { "type": "Point", "coordinates": [ -95.55, 42.97 ] } },
{ "type": "Feature", "properties": { "Lat_DD": 38.98, "Lon_DD": -94.93, "ID": "A142099", "Name": "DESOTO", "State": "Kansas", "elevation": 286, "status": "INACTIVE" }, "geometry": { "type": "Point", "coordinates": [ -94.93, 38.98 ] } },
{ "type": "Feature", "properties": { "Lat_DD": 38.7, "Lon_DD": -99.33, "ID": "A143528", "Name": "HAYS SOUTH", "State": "Kansas", "elevation": 610, "status": "INACTIVE" }, "geometry": { "type": "Point", "coordinates": [ -99.33, 38.7 ] } },
{ "type": "Feature", "properties": { "Lat_DD": 38.13, "Lon_DD": -97.4, "ID": "A143599", "Name": "HESSTON", "State": "Kansas", "elevation": 412, "status": "INACTIVE" }, "geometry": { "type": "Point", "coordinates": [ -97.4, 38.13 ] } },
{ "type": "Feature", "properties": { "Lat_DD": 37.35, "Lon_DD": -101.35, "ID": "A143855", "Name": "HUGOTON 10ENE", "State": "Kansas", "elevation": 947, "status": "INACTIVE" }, "geometry": { "type": "Point", "coordinates": [ -101.35, 37.35 ] } },
{ "type": "Feature", "properties": { "Lat_DD": 39.18, "Lon_DD": -96.6, "ID": "A144969", "Name": "MANHATTAN#2", "State": "Kansas", "elevation": 320, "status": "INACTIVE" }, "geometry": { "type": "Point", "coordinates": [ -96.6, 39.18 ] } },
{ "type": "Feature", "properties": { "Lat_DD": 38.33, "Lon_DD": -97.67, "ID": "A145171", "Name": "MCPHERSON 1S", "State": "Kansas", "elevation": 453, "status": "INACTIVE" }, "geometry": { "type": "Point", "coordinates": [ -97.67, 38.33 ] } },
{ "type": "Feature", "properties": { "Lat_DD": 38.68, "Lon_DD": -95.62, "ID": "A146493", "Name": "POMONA LAKE", "State": "Kansas", "elevation": 302, "status": "INACTIVE" }, "geometry": { "type": "Point", "coordinates": [ -95.62, 38.68 ] } },
{ "type": "Feature", "properties": { "Lat_DD": 39.8, "Lon_DD": -95.8, "ID": "A146539", "Name": "POWHATTAN", "State": "Kansas", "elevation": 365, "status": "INACTIVE" }, "geometry": { "type": "Point", "coordinates": [ -95.8, 39.8 ] } },
{ "type": "Feature", "properties": { "Lat_DD": 37.87, "Lon_DD": -97.5, "ID": "A148839", "Name": "WICHITA", "State": "Kansas", "elevation": 379, "status": "INACTIVE" }, "geometry": { "type": "Point", "coordinates": [ -97.5, 37.87 ] } },
{ "type": "Feature", "properties": { "Lat_DD": 37.95, "Lon_DD": -98.75, "ID": "A147169", "Name": "ST JOHN", "State": "Kansas", "elevation": 564, "status": "INACTIVE" }, "geometry": { "type": "Point", "coordinates": [ -98.75, 37.95 ] } },
{ "type": "Feature", "properties": { "Lat_DD": 41.18, "Lon_DD": -104.1, "ID": "A487239", "Name": "PINE BLUFFS", "State": "Wyoming", "elevation": 1554, "status": "INACTIVE" }, "geometry": { "type": "Point", "coordinates": [ -104.1, 41.18 ] } },
{ "type": "Feature", "properties": { "Lat_DD": 42.03, "Lon_DD": -104.18, "ID": "A488999", "Name": "TORRINGTON", "State": "Wyoming", "elevation": 1216, "status": "INACTIVE" }, "geometry": { "type": "Point", "coordinates": [ -104.18, 42.03 ] } },
{ "type": "Feature", "properties": { "Lat_DD": 42.08, "Lon_DD": -104.95, "ID": "A489619", "Name": "WHEATLAND", "State": "Wyoming", "elevation": 1417, "status": "INACTIVE" }, "geometry": { "type": "Point", "coordinates": [ -104.95, 42.08 ] } },
{ "type": "Feature", "properties": { "Lat_DD": 46.88, "Lon_DD": -100.62, "ID": "A320829", "Name": "BISMARCK", "State": "North Dakota", "elevation": 574, "status": "INACTIVE" }, "geometry": { "type": "Point", "coordinates": [ -100.62, 46.88 ] } },
{ "type": "Feature", "properties": { "Lat_DD": 48.77, "Lon_DD": -102.75, "ID": "A321709", "Name": "COLUMBUS", "State": "North Dakota", "elevation": 746, "status": "INACTIVE" }, "geometry": { "type": "Point", "coordinates": [ -102.75, 48.77 ] } },
{ "type": "Feature", "properties": { "Lat_DD": 48.63, "Lon_DD": -99.13, "ID": "A322539", "Name": "EGELAND", "State": "North Dakota", "elevation": 459, "status": "INACTIVE" }, "geometry": { "type": "Point", "coordinates": [ -99.13, 48.63 ] } },
{ "type": "Feature", "properties": { "Lat_DD": 46.72, "Lon_DD": -96.9, "ID": "A324299", "Name": "HORACE", "State": "North Dakota", "elevation": 278, "status": "INACTIVE" }, "geometry": { "type": "Point", "coordinates": [ -96.9, 46.72 ] } },
{ "type": "Feature", "properties": { "Lat_DD": 46.43, "Lon_DD": -97.4, "ID": "A325759", "Name": "MCLEOD", "State": "North Dakota", "elevation": 327, "status": "INACTIVE" }, "geometry": { "type": "Point", "coordinates": [ -97.4, 46.43 ] } },
{ "type": "Feature", "properties": { "Lat_DD": 47.73, "Lon_DD": -97.62, "ID": "A326499", "Name": "NORTHWOOD", "State": "North Dakota", "elevation": 330, "status": "INACTIVE" }, "geometry": { "type": "Point", "coordinates": [ -97.62, 47.73 ] } },
{ "type": "Feature", "properties": { "Lat_DD": 48.35, "Lon_DD": -100.48, "ID": "A328799", "Name": "TOWNER", "State": "North Dakota", "elevation": 447, "status": "INACTIVE" }, "geometry": { "type": "Point", "coordinates": [ -100.48, 48.35 ] } },
{ "type": "Feature", "properties": { "Lat_DD": 48.97, "Lon_DD": -97.85, "ID": "A329159", "Name": "WALHALLA", "State": "North Dakota", "elevation": 322, "status": "INACTIVE" }, "geometry": { "type": "Point", "coordinates": [ -97.85, 48.97 ] } },
{ "type": "Feature", "properties": { "Lat_DD": 38.9, "Lon_DD": -107.93, "ID": "A051299", "Name": "CEDAREDGE", "State": "Colorado ", "elevation": 1952, "status": "INACTIVE" }, "geometry": { "type": "Point", "coordinates": [ -107.93, 38.9 ] } },
{ "type": "Feature", "properties": { "Lat_DD": 39.18, "Lon_DD": -108.0, "ID": "A051741", "Name": "COLLBRAN", "State": "Colorado ", "elevation": 1976, "status": "INACTIVE" }, "geometry": { "type": "Point", "coordinates": [ -108.0, 39.18 ] } },
{ "type": "Feature", "properties": { "Lat_DD": 40.7, "Lon_DD": -106.95, "ID": "A051792", "Name": "CLARK", "State": "Colorado ", "elevation": 2200, "status": "INACTIVE" }, "geometry": { "type": "Point", "coordinates": [ -106.95, 40.7 ] } },
{ "type": "Feature", "properties": { "Lat_DD": 37.1, "Lon_DD": -107.88, "ID": "A052432", "Name": "DURANGO", "State": "Colorado ", "elevation": 1870, "status": "INACTIVE" }, "geometry": { "type": "Point", "coordinates": [ 107.88, 37.1 ] } },
{ "type": "Feature", "properties": { "Lat_DD": 39.62, "Lon_DD": -106.78, "ID": "A052454", "Name": "EAGLE", "State": "Colorado ", "elevation": 2078, "status": "INACTIVE" }, "geometry": { "type": "Point", "coordinates": [ -106.78, 39.62 ] } },
{ "type": "Feature", "properties": { "Lat_DD": 39.17, "Lon_DD": -108.7, "ID": "A053150", "Name": "FRUITA EXP (CSU)", "State": "Colorado ", "elevation": 1388, "status": "INACTIVE" }, "geometry": { "type": "Point", "coordinates": [ -108.7, 39.17 ] } },
{ "type": "Feature", "properties": { "Lat_DD": 40.37, "Lon_DD": -104.35, "ID": "A053548", "Name": "UNITED WATER", "State": "Colorado ", "elevation": 1427, "status": "INACTIVE" }, "geometry": { "type": "Point", "coordinates": [ -104.35, 40.37 ] } },
{ "type": "Feature", "properties": { "Lat_DD": 38.6, "Lon_DD": -108.08, "ID": "A056258", "Name": "OLATHE 2", "State": "Colorado ", "elevation": 1661, "status": "INACTIVE" }, "geometry": { "type": "Point", "coordinates": [ -108.08, 38.6 ] } },
{ "type": "Feature", "properties": { "Lat_DD": 40.82, "Lon_DD": -102.28, "ID": "A058690", "Name": "CHEROKEE PARK", "State": "Colorado ", "elevation": 1795, "status": "INACTIVE" }, "geometry": { "type": "Point", "coordinates": [ -102.28, 40.82 ] } },
{ "type": "Feature", "properties": { "Lat_DD": 40.18, "Lon_DD": -102.22, "ID": "A059251", "Name": "WRAY", "State": "Colorado ", "elevation": 1122, "status": "INACTIVE" }, "geometry": { "type": "Point", "coordinates": [ -102.22, 40.18 ] } },
{ "type": "Feature", "properties": { "Lat_DD": 40.15, "Lon_DD": -102.73, "ID": "A059299", "Name": "YUMA", "State": "Colorado ", "elevation": 1237, "status": "INACTIVE" }, "geometry": { "type": "Point", "coordinates": [ -102.73, 40.15 ] } },
{ "type": "Feature", "properties": { "Lat_DD": 47.78, "Lon_DD": -96.62, "ID": "A211899", "Name": "CROOKSTON", "State": "Minnesota", "elevation": 280, "status": "INACTIVE" }, "geometry": { "type": "Point", "coordinates": [ -96.62, 47.78 ] } },
{ "type": "Feature", "properties": { "Lat_DD": 40.47, "Lon_DD": -95.48, "ID": "A237229", "Name": "ROCKPORT", "State": "Missouri", "elevation": 268, "status": "INACTIVE" }, "geometry": { "type": "Point", "coordinates": [ -95.48, 40.47 ] } },
{ "type": "Feature", "properties": { "Lat_DD": 39.77, "Lon_DD": -94.92, "ID": "A237439", "Name": "ST JOE", "State": "Missouri", "elevation": 252, "status": "INACTIVE" }, "geometry": { "type": "Point", "coordinates": [ -94.92, 39.77 ] } }
]
}
